[
 {
  "City": "Fort Worth",
  "Country_long": "United States of America",
  "Longitude": -97.32316,
  "Latitude": 32.75876
 },
 {
  "City": "Bellevue",
  "Country_long": "United States of America",
  "Longitude": -122.15341,
  "Latitude": 47.561195
 },
 {
  "City": "New York City",
  "Country_long": "United States of America",
  "Longitude": -74.00597,
  "Latitude": 40.71427
 },
 {
  "City": "Bellevue",
  "Country_long": "United States of America",
  "Longitude": -122.15341,
  "Latitude": 47.561195
 },
 {
  "City": "Madison",
  "Country_long": "United States of America",
  "Longitude": -89.411415,
  "Latitude": 43.07529
 },
 {
  "City": "Finland",
  "Country_long": "United States of America",
  "Longitude": -91.24917,
  "Latitude": 47.41472
 },
 {
  "City": "Bellevue",
  "Country_long": "United States of America",
  "Longitude": -122.15341,
  "Latitude": 47.561195
 },
 {
  "City": "Madrid",
  "Country_long": "Spain",
  "Longitude": -3.70256,
  "Latitude": 40.4165
 },
 {
  "City": "Bellevue",
  "Country_long": "United States of America",
  "Longitude": -122.15341,
  "Latitude": 47.561195
 },
 {
  "City": "Portland",
  "Country_long": "United States of America",
  "Longitude": -122.67621,
  "Latitude": 45.52345
 },
 {
  "City": "Norfolk",
  "Country_long": "United States of America",
  "Longitude": -76.28522,
  "Latitude": 36.84681
 },
 {
  "City": "Stockholm",
  "Country_long": "Sweden",
  "Longitude": 18.0649,
  "Latitude": 59.33258
 },
 {
  "City": "Provo",
  "Country_long": "United States of America",
  "Longitude": -111.65853,
  "Latitude": 40.23384
 },
 {
  "City": "Montreal",
  "Country_long": "Canada",
  "Longitude": -73.526,
  "Latitude": 45.506428
 },
 {
  "City": "Charleston",
  "Country_long": "United States of America",
  "Longitude": -79.93772,
  "Latitude": 32.77864
 },
 {
  "City": "Bellevue",
  "Country_long": "United States of America",
  "Longitude": -122.15341,
  "Latitude": 47.561195
 },
 {
  "City": "Waltham",
  "Country_long": "United States of America",
  "Longitude": -71.2398,
  "Latitude": 42.3889
 },
 {
  "City": "Bellevue",
  "Country_long": "United States of America",
  "Longitude": -122.15341,
  "Latitude": 47.561195
 },
 {
  "City": "Atlanta",
  "Country_long": "United States of America",
  "Longitude": -84.38798,
  "Latitude": 33.749
 },
 {
  "City": "Newington",
  "Country_long": "United States of America",
  "Longitude": -72.73333,
  "Latitude": 41.683334
 },
 {
  "City": "-",
  "Country_long": "-",
  "Longitude": 0,
  "Latitude": 0
 },
 {
  "City": "Monroe",
  "Country_long": "United States of America",
  "Longitude": -92.045235,
  "Latitude": 32.54833
 },
 {
  "City": "Vienna",
  "Country_long": "Austria",
  "Longitude": 16.37208,
  "Latitude": 48.20849
 },
 {
  "City": "Palo Alto",
  "Country_long": "United States of America",
  "Longitude": -122.1604,
  "Latitude": 37.409912
 },
 {
  "City": "Bellevue",
  "Country_long": "United States of America",
  "Longitude": -122.15341,
  "Latitude": 47.561195
 },
 {
  "City": "Columbus",
  "Country_long": "United States of America",
  "Longitude": -83.04386,
  "Latitude": 39.987232
 },
 {
  "City": "Bellevue",
  "Country_long": "United States of America",
  "Longitude": -122.15341,
  "Latitude": 47.561195
 },
 {
  "City": "Edison",
  "Country_long": "United States of America",
  "Longitude": -74.35397,
  "Latitude": 40.50424
 },
 {
  "City": "Quincy",
  "Country_long": "United States of America",
  "Longitude": -71.024956,
  "Latitude": 42.28362
 },
 {
  "City": "Rosemead",
  "Country_long": "United States of America",
  "Longitude": -118.08162,
  "Latitude": 34.0614
 },
 {
  "City": "Piscataway",
  "Country_long": "United States of America",
  "Longitude": -74.46017,
  "Latitude": 40.554516
 },
 {
  "City": "Quincy",
  "Country_long": "United States of America",
  "Longitude": -71.024956,
  "Latitude": 42.28362
 },
 {
  "City": "Lake Mary",
  "Country_long": "United States of America",
  "Longitude": -81.34584,
  "Latitude": 28.75992
 },
 {
  "City": "Bellevue",
  "Country_long": "United States of America",
  "Longitude": -122.15341,
  "Latitude": 47.561195
 },
 {
  "City": "Palo Alto",
  "Country_long": "United States of America",
  "Longitude": -122.1604,
  "Latitude": 37.409912
 },
 {
  "City": "Bellevue",
  "Country_long": "United States of America",
  "Longitude": -122.15341,
  "Latitude": 47.561195
 },
 {
  "City": "Mountain View",
  "Country_long": "United States of America",
  "Longitude": -122.078514,
  "Latitude": 37.40599
 },
 {
  "City": "Chippewa Falls",
  "Country_long": "United States of America",
  "Longitude": -91.395836,
  "Latitude": 45.031666
 },
 {
  "City": "Nutley",
  "Country_long": "United States of America",
  "Longitude": -74.160484,
  "Latitude": 40.817707
 },
 {
  "City": "Chicago",
  "Country_long": "United States of America",
  "Longitude": -87.6245,
  "Latitude": 41.8865
 },
 {
  "City": "Oulu",
  "Country_long": "Finland",
  "Longitude": 25.46816,
  "Latitude": 65.01236
 },
 {
  "City": "Orlando",
  "Country_long": "United States of America",
  "Longitude": -81.1846,
  "Latitude": 28.578844
 },
 {
  "City": "New York City",
  "Country_long": "United States of America",
  "Longitude": -74.00597,
  "Latitude": 40.71427
 },
 {
  "City": "Bellevue",
  "Country_long": "United States of America",
  "Longitude": -122.15341,
  "Latitude": 47.561195
 },
 {
  "City": "Bellevue",
  "Country_long": "United States of America",
  "Longitude": -122.15341,
  "Latitude": 47.561195
 },
 {
  "City": "Bellevue",
  "Country_long": "United States of America",
  "Longitude": -122.15341,
  "Latitude": 47.561195
 },
 {
  "City": "Indianapolis",
  "Country_long": "United States of America",
  "Longitude": -86.15652,
  "Latitude": 39.772247
 },
 {
  "City": "Bellevue",
  "Country_long": "United States of America",
  "Longitude": -122.15341,
  "Latitude": 47.561195
 },
 {
  "City": "Bellevue",
  "Country_long": "United States of America",
  "Longitude": -122.15341,
  "Latitude": 47.561195
 },
 {
  "City": "Berlin",
  "Country_long": "Germany",
  "Longitude": 13.41053,
  "Latitude": 52.52437
 },
 {
  "City": "Bellevue",
  "Country_long": "United States of America",
  "Longitude": -122.15341,
  "Latitude": 47.561195
 },
 {
  "City": "Austin",
  "Country_long": "United States of America",
  "Longitude": -97.70022,
  "Latitude": 30.14568
 },
 {
  "City": "Bellevue",
  "Country_long": "United States of America",
  "Longitude": -122.15341,
  "Latitude": 47.561195
 },
 {
  "City": "Washington",
  "Country_long": "United States of America",
  "Longitude": -77.03637,
  "Latitude": 38.89511
 },
 {
  "City": "Chicago",
  "Country_long": "United States of America",
  "Longitude": -87.6245,
  "Latitude": 41.8865
 },
 {
  "City": "Los Angeles",
  "Country_long": "United States of America",
  "Longitude": -118.24368,
  "Latitude": 34.05223
 },
 {
  "City": "Saint Cloud",
  "Country_long": "United States of America",
  "Longitude": -94.16249,
  "Latitude": 45.5608
 },
 {
  "City": "Portland",
  "Country_long": "United States of America",
  "Longitude": -122.67621,
  "Latitude": 45.52345
 },
 {
  "City": "Chicago",
  "Country_long": "United States of America",
  "Longitude": -87.6367,
  "Latitude": 41.8825
 },
 {
  "City": "New York City",
  "Country_long": "United States of America",
  "Longitude": -74.00597,
  "Latitude": 40.71427
 },
 {
  "City": "Bellevue",
  "Country_long": "United States of America",
  "Longitude": -122.15341,
  "Latitude": 47.561195
 },
 {
  "City": "Kingfisher",
  "Country_long": "United States of America",
  "Longitude": -97.93597,
  "Latitude": 35.851257
 },
 {
  "City": "Anchorage",
  "Country_long": "United States of America",
  "Longitude": -149.9877,
  "Latitude": 61.1904
 },
 {
  "City": "Columbus",
  "Country_long": "United States of America",
  "Longitude": -83.01277,
  "Latitude": 39.96638
 },
 {
  "City": "Zurich",
  "Country_long": "Switzerland",
  "Longitude": 8.55,
  "Latitude": 47.36667
 },
 {
  "City": "Bellevue",
  "Country_long": "United States of America",
  "Longitude": -122.15341,
  "Latitude": 47.561195
 },
 {
  "City": "Ashburn",
  "Country_long": "United States of America",
  "Longitude": -77.48749,
  "Latitude": 39.04372
 },
 {
  "City": "Rosemead",
  "Country_long": "United States of America",
  "Longitude": -118.08162,
  "Latitude": 34.0614
 },
 {
  "City": "New York City",
  "Country_long": "United States of America",
  "Longitude": -74.00501,
  "Latitude": 40.719936
 },
 {
  "City": "Fort Huachuca",
  "Country_long": "United States of America",
  "Longitude": -110.35056,
  "Latitude": 31.55646
 },
 {
  "City": "Newark",
  "Country_long": "United States of America",
  "Longitude": -74.17237,
  "Latitude": 40.73566
 },
 {
  "City": "Yavne",
  "Country_long": "Israel",
  "Longitude": 34.74,
  "Latitude": 31.87639
 },
 {
  "City": "Denver",
  "Country_long": "United States of America",
  "Longitude": -104.9847,
  "Latitude": 39.73915
 },
 {
  "City": "Irvine",
  "Country_long": "United States of America",
  "Longitude": -117.82311,
  "Latitude": 33.66946
 },
 {
  "City": "Tabriz",
  "Country_long": "Iran (Islamic Republic of)",
  "Longitude": 46.2919,
  "Latitude": 38.08
 },
 {
  "City": "Bellevue",
  "Country_long": "United States of America",
  "Longitude": -122.15341,
  "Latitude": 47.561195
 },
 {
  "City": "Winnipeg",
  "Country_long": "Canada",
  "Longitude": -97.06695,
  "Latitude": 49.85385
 },
 {
  "City": "Vancouver",
  "Country_long": "Canada",
  "Longitude": -123.12528,
  "Latitude": 49.278923
 },
 {
  "City": "New York City",
  "Country_long": "United States of America",
  "Longitude": -74.00597,
  "Latitude": 40.71427
 },
 {
  "City": "Bellevue",
  "Country_long": "United States of America",
  "Longitude": -122.15341,
  "Latitude": 47.561195
 },
 {
  "City": "Park Head",
  "Country_long": "Canada",
  "Longitude": -81.14974,
  "Latitude": 44.60009
 },
 {
  "City": "San Francisco",
  "Country_long": "United States of America",
  "Longitude": -122.459435,
  "Latitude": 37.781734
 },
 {
  "City": "Irvine",
  "Country_long": "United States of America",
  "Longitude": -117.82311,
  "Latitude": 33.66946
 },
 {
  "City": "Provo",
  "Country_long": "United States of America",
  "Longitude": -111.65853,
  "Latitude": 40.23384
 },
 {
  "City": "Bellevue",
  "Country_long": "United States of America",
  "Longitude": -122.15341,
  "Latitude": 47.561195
 },
 {
  "City": "West Chester",
  "Country_long": "United States of America",
  "Longitude": -75.60549,
  "Latitude": 39.96066
 },
 {
  "City": "Gemswick",
  "Country_long": "Barbados",
  "Longitude": -59.5179,
  "Latitude": 13.0912
 },
 {
  "City": "Greenwood Village",
  "Country_long": "United States of America",
  "Longitude": -104.88393,
  "Latitude": 39.613087
 },
 {
  "City": "Waltham",
  "Country_long": "United States of America",
  "Longitude": -71.25922,
  "Latitude": 42.39871
 },
 {
  "City": "Vancouver",
  "Country_long": "United States of America",
  "Longitude": -122.52624,
  "Latitude": 45.60223
 },
 {
  "City": "Houston",
  "Country_long": "United States of America",
  "Longitude": -95.36327,
  "Latitude": 29.76328
 },
 {
  "City": "Neuilly-sur-Seine",
  "Country_long": "France",
  "Longitude": 2.26667,
  "Latitude": 48.88333
 },
 {
  "City": "Milan",
  "Country_long": "Italy",
  "Longitude": 9.18951,
  "Latitude": 45.46427
 },
 {
  "City": "Columbus",
  "Country_long": "United States of America",
  "Longitude": -83.01277,
  "Latitude": 39.96638
 },
 {
  "City": "Bellevue",
  "Country_long": "United States of America",
  "Longitude": -122.15341,
  "Latitude": 47.561195
 },
 {
  "City": "Bellevue",
  "Country_long": "United States of America",
  "Longitude": -122.15341,
  "Latitude": 47.561195
 },
 {
  "City": "Helsinki",
  "Country_long": "Finland",
  "Longitude": 24.93545,
  "Latitude": 60.16952
 },
 {
  "City": "Bellevue",
  "Country_long": "United States of America",
  "Longitude": -122.15341,
  "Latitude": 47.561195
 },
 {
  "City": "Richardson",
  "Country_long": "United States of America",
  "Longitude": -96.72972,
  "Latitude": 32.94818
 },
 {
  "City": "Nanterre",
  "Country_long": "France",
  "Longitude": 2.20675,
  "Latitude": 48.89198
 },
 {
  "City": "Alexandria",
  "Country_long": "United States of America",
  "Longitude": -77.04692,
  "Latitude": 38.80484
 },
 {
  "City": "Bellevue",
  "Country_long": "United States of America",
  "Longitude": -122.15341,
  "Latitude": 47.561195
 },
 {
  "City": "Bellevue",
  "Country_long": "United States of America",
  "Longitude": -122.15341,
  "Latitude": 47.561195
 },
 {
  "City": "Richardson",
  "Country_long": "United States of America",
  "Longitude": -96.72972,
  "Latitude": 32.94818
 },
 {
  "City": "Newark",
  "Country_long": "United States of America",
  "Longitude": -74.17237,
  "Latitude": 40.73566
 },
 {
  "City": "Toronto",
  "Country_long": "Canada",
  "Longitude": -79.4163,
  "Latitude": 43.70011
 },
 {
  "City": "Indianapolis",
  "Country_long": "United States of America",
  "Longitude": -86.15652,
  "Latitude": 39.772247
 },
 {
  "City": "New York City",
  "Country_long": "United States of America",
  "Longitude": -74.00597,
  "Latitude": 40.71427
 },
 {
  "City": "Bellevue",
  "Country_long": "United States of America",
  "Longitude": -122.15341,
  "Latitude": 47.561195
 },
 {
  "City": "New York City",
  "Country_long": "United States of America",
  "Longitude": -74.00597,
  "Latitude": 40.71427
 },
 {
  "City": "Toronto",
  "Country_long": "Canada",
  "Longitude": -79.58633,
  "Latitude": 43.678173
 },
 {
  "City": "Naperville",
  "Country_long": "United States of America",
  "Longitude": -88.14729,
  "Latitude": 41.78586
 },
 {
  "City": "Iowa City",
  "Country_long": "United States of America",
  "Longitude": -91.51035,
  "Latitude": 41.665016
 },
 {
  "City": "Milan",
  "Country_long": "Italy",
  "Longitude": 9.18951,
  "Latitude": 45.46427
 },
 {
  "City": "Swindon",
  "Country_long": "United Kingdom of Great Britain and Northern Ireland",
  "Longitude": -1.78116,
  "Latitude": 51.55797
 },
 {
  "City": "Bellevue",
  "Country_long": "United States of America",
  "Longitude": -122.15341,
  "Latitude": 47.561195
 },
 {
  "City": "Reston",
  "Country_long": "United States of America",
  "Longitude": -77.3411,
  "Latitude": 38.96872
 },
 {
  "City": "Virginia Beach",
  "Country_long": "United States of America",
  "Longitude": -76.00152,
  "Latitude": 36.88164
 },
 {
  "City": "Orange",
  "Country_long": "United States of America",
  "Longitude": -117.84728,
  "Latitude": 33.81033
 },
 {
  "City": "Arlington",
  "Country_long": "United States of America",
  "Longitude": -97.10807,
  "Latitude": 32.73569
 },
 {
  "City": "New York City",
  "Country_long": "United States of America",
  "Longitude": -74.00597,
  "Latitude": 40.71427
 },
 {
  "City": "Rosemead",
  "Country_long": "United States of America",
  "Longitude": -118.08162,
  "Latitude": 34.0614
 },
 {
  "City": "Dublin",
  "Country_long": "United States of America",
  "Longitude": -121.92996,
  "Latitude": 37.71474
 },
 {
  "City": "Bellevue",
  "Country_long": "United States of America",
  "Longitude": -122.15341,
  "Latitude": 47.561195
 },
 {
  "City": "Beauharnois",
  "Country_long": "Canada",
  "Longitude": -73.8659,
  "Latitude": 45.31678
 },
 {
  "City": "New York City",
  "Country_long": "United States of America",
  "Longitude": -74.00597,
  "Latitude": 40.71427
 },
 {
  "City": "Hoffman Estates",
  "Country_long": "United States of America",
  "Longitude": -88.11012,
  "Latitude": 42.07632
 },
 {
  "City": "Bellevue",
  "Country_long": "United States of America",
  "Longitude": -122.15341,
  "Latitude": 47.561195
 },
 {
  "City": "Kotka",
  "Country_long": "Finland",
  "Longitude": 23.36667,
  "Latitude": 63.8
 },
 {
  "City": "Tabriz",
  "Country_long": "Iran (Islamic Republic of)",
  "Longitude": 46.2919,
  "Latitude": 38.08
 },
 {
  "City": "San Jose",
  "Country_long": "United States of America",
  "Longitude": -121.88528,
  "Latitude": 37.38564
 },
 {
  "City": "Newtown",
  "Country_long": "Australia",
  "Longitude": 143.65,
  "Latitude": -37.7
 },
 {
  "City": "Taipei",
  "Country_long": "Taiwan (Province of China)",
  "Longitude": 121.53185,
  "Latitude": 25.04776
 },
 {
  "City": "Dallas",
  "Country_long": "United States of America",
  "Longitude": -96.83873,
  "Latitude": 32.93949
 },
 {
  "City": "Monroe",
  "Country_long": "United States of America",
  "Longitude": -92.045235,
  "Latitude": 32.54833
 },
 {
  "City": "Orange",
  "Country_long": "United States of America",
  "Longitude": -117.84728,
  "Latitude": 33.81033
 },
 {
  "City": "Phoenix",
  "Country_long": "United States of America",
  "Longitude": -112.11909,
  "Latitude": 33.597473
 },
 {
  "City": "Beauharnois",
  "Country_long": "Canada",
  "Longitude": -73.8659,
  "Latitude": 45.31678
 },
 {
  "City": "Bellevue",
  "Country_long": "United States of America",
  "Longitude": -122.15341,
  "Latitude": 47.561195
 },
 {
  "City": "Bellevue",
  "Country_long": "United States of America",
  "Longitude": -122.15341,
  "Latitude": 47.561195
 },
 {
  "City": "Bellevue",
  "Country_long": "United States of America",
  "Longitude": -122.15341,
  "Latitude": 47.561195
 },
 {
  "City": "Kajaani",
  "Country_long": "Finland",
  "Longitude": 27.72846,
  "Latitude": 64.22728
 },
 {
  "City": "Los Angeles",
  "Country_long": "United States of America",
  "Longitude": -118.24368,
  "Latitude": 34.05223
 },
 {
  "City": "Bellevue",
  "Country_long": "United States of America",
  "Longitude": -122.15341,
  "Latitude": 47.561195
 },
 {
  "City": "Petah Tikva",
  "Country_long": "Israel",
  "Longitude": 34.88503,
  "Latitude": 32.09174
 },
 {
  "City": "New York City",
  "Country_long": "United States of America",
  "Longitude": -74.00597,
  "Latitude": 40.71427
 },
 {
  "City": "San Diego",
  "Country_long": "United States of America",
  "Longitude": -117.10122,
  "Latitude": 33.021538
 },
 {
  "City": "Ashburn",
  "Country_long": "United States of America",
  "Longitude": -77.4885,
  "Latitude": 39.03408
 },
 {
  "City": "Tokyo",
  "Country_long": "Japan",
  "Longitude": 139.6917,
  "Latitude": 35.689507
 },
 {
  "City": "Seoul",
  "Country_long": "Korea (Republic of)",
  "Longitude": 126.97783,
  "Latitude": 37.56826
 },
 {
  "City": "Columbus",
  "Country_long": "United States of America",
  "Longitude": -83.01277,
  "Latitude": 39.96638
 },
 {
  "City": "Bellevue",
  "Country_long": "United States of America",
  "Longitude": -122.15341,
  "Latitude": 47.561195
 },
 {
  "City": "Cape Town",
  "Country_long": "South Africa",
  "Longitude": 18.42322,
  "Latitude": -33.92584
 },
 {
  "City": "Johannesburg",
  "Country_long": "South Africa",
  "Longitude": 28.04363,
  "Latitude": -26.20227
 },
 {
  "City": "Beaverton",
  "Country_long": "United States of America",
  "Longitude": -122.8013,
  "Latitude": 45.4925
 },
 {
  "City": "Los Angeles",
  "Country_long": "United States of America",
  "Longitude": -118.24368,
  "Latitude": 34.05223
 },
 {
  "City": "Bellevue",
  "Country_long": "United States of America",
  "Longitude": -122.15341,
  "Latitude": 47.561195
 },
 {
  "City": "Palo Alto",
  "Country_long": "United States of America",
  "Longitude": -122.1604,
  "Latitude": 37.409912
 },
 {
  "City": "Newark",
  "Country_long": "United States of America",
  "Longitude": -74.17237,
  "Latitude": 40.73566
 },
 {
  "City": "Sacramento",
  "Country_long": "United States of America",
  "Longitude": -121.4427,
  "Latitude": 38.6054
 },
 {
  "City": "Greenwood Village",
  "Country_long": "United States of America",
  "Longitude": -104.88393,
  "Latitude": 39.613087
 },
 {
  "City": "Ottawa",
  "Country_long": "Canada",
  "Longitude": -75.69812,
  "Latitude": 45.41117
 },
 {
  "City": "Reston",
  "Country_long": "United States of America",
  "Longitude": -77.3421,
  "Latitude": 38.95669
 },
 {
  "City": "Kingfisher",
  "Country_long": "United States of America",
  "Longitude": -97.93597,
  "Latitude": 35.851257
 },
 {
  "City": "Durham",
  "Country_long": "United States of America",
  "Longitude": -78.8962,
  "Latitude": 35.9947
 },
 {
  "City": "Baton Rouge",
  "Country_long": "United States of America",
  "Longitude": -91.083374,
  "Latitude": 30.408615
 },
 {
  "City": "Bellevue",
  "Country_long": "United States of America",
  "Longitude": -122.15341,
  "Latitude": 47.561195
 },
 {
  "City": "Waltham",
  "Country_long": "United States of America",
  "Longitude": -71.25922,
  "Latitude": 42.39871
 },
 {
  "City": "Bellevue",
  "Country_long": "United States of America",
  "Longitude": -122.15341,
  "Latitude": 47.561195
 },
 {
  "City": "Bellevue",
  "Country_long": "United States of America",
  "Longitude": -122.15341,
  "Latitude": 47.561195
 },
 {
  "City": "Ljubljana",
  "Country_long": "Slovenia",
  "Longitude": 14.50513,
  "Latitude": 46.05108
 },
 {
  "City": "Bellevue",
  "Country_long": "United States of America",
  "Longitude": -122.15341,
  "Latitude": 47.561195
 },
 {
  "City": "Beauharnois",
  "Country_long": "Canada",
  "Longitude": -73.8659,
  "Latitude": 45.31678
 },
 {
  "City": "Bellevue",
  "Country_long": "United States of America",
  "Longitude": -122.15341,
  "Latitude": 47.561195
 },
 {
  "City": "Ashburn",
  "Country_long": "United States of America",
  "Longitude": -77.48749,
  "Latitude": 39.04372
 },
 {
  "City": "Noida",
  "Country_long": "India",
  "Longitude": 77.33,
  "Latitude": 28.58
 },
 {
  "City": "El Segundo",
  "Country_long": "United States of America",
  "Longitude": -118.40552,
  "Latitude": 33.922234
 },
 {
  "City": "Chicago",
  "Country_long": "United States of America",
  "Longitude": -87.6245,
  "Latitude": 41.8865
 },
 {
  "City": "Stockholm",
  "Country_long": "Sweden",
  "Longitude": 18.0649,
  "Latitude": 59.33258
 },
 {
  "City": "Bellevue",
  "Country_long": "United States of America",
  "Longitude": -122.15341,
  "Latitude": 47.561195
 },
 {
  "City": "Schaumburg",
  "Country_long": "United States of America",
  "Longitude": -88.07972,
  "Latitude": 42.042778
 },
 {
  "City": "Bellevue",
  "Country_long": "United States of America",
  "Longitude": -122.15341,
  "Latitude": 47.561195
 },
 {
  "City": "Bellevue",
  "Country_long": "United States of America",
  "Longitude": -122.15341,
  "Latitude": 47.561195
 },
 {
  "City": "Monroe",
  "Country_long": "United States of America",
  "Longitude": -92.045235,
  "Latitude": 32.54833
 },
 {
  "City": "Bellevue",
  "Country_long": "United States of America",
  "Longitude": -122.15341,
  "Latitude": 47.561195
 },
 {
  "City": "Bellevue",
  "Country_long": "United States of America",
  "Longitude": -122.15341,
  "Latitude": 47.561195
 },
 {
  "City": "Bellevue",
  "Country_long": "United States of America",
  "Longitude": -122.15341,
  "Latitude": 47.561195
 },
 {
  "City": "Newark",
  "Country_long": "United States of America",
  "Longitude": -74.17237,
  "Latitude": 40.73566
 },
 {
  "City": "Austin",
  "Country_long": "United States of America",
  "Longitude": -97.70022,
  "Latitude": 30.14568
 },
 {
  "City": "Los Angeles",
  "Country_long": "United States of America",
  "Longitude": -118.24368,
  "Latitude": 34.05223
 },
 {
  "City": "Bellevue",
  "Country_long": "United States of America",
  "Longitude": -122.15341,
  "Latitude": 47.561195
 },
 {
  "City": "Bellevue",
  "Country_long": "United States of America",
  "Longitude": -122.15341,
  "Latitude": 47.561195
 },
 {
  "City": "Parsippany",
  "Country_long": "United States of America",
  "Longitude": -74.42599,
  "Latitude": 40.85788
 },
 {
  "City": "Pleasant Hill",
  "Country_long": "United States of America",
  "Longitude": -122.07666,
  "Latitude": 37.95414
 },
 {
  "City": "Bellevue",
  "Country_long": "United States of America",
  "Longitude": -122.15341,
  "Latitude": 47.561195
 },
 {
  "City": "New York City",
  "Country_long": "United States of America",
  "Longitude": -73.986534,
  "Latitude": 40.765064
 },
 {
  "City": "Bucharest",
  "Country_long": "Romania",
  "Longitude": 26.10626,
  "Latitude": 44.43225
 },
 {
  "City": "Bellevue",
  "Country_long": "United States of America",
  "Longitude": -122.15341,
  "Latitude": 47.561195
 },
 {
  "City": "Indianapolis",
  "Country_long": "United States of America",
  "Longitude": -86.15652,
  "Latitude": 39.772247
 },
 {
  "City": "Bellevue",
  "Country_long": "United States of America",
  "Longitude": -122.15341,
  "Latitude": 47.561195
 },
 {
  "City": "Bellevue",
  "Country_long": "United States of America",
  "Longitude": -122.15341,
  "Latitude": 47.561195
 },
 {
  "City": "Los Angeles",
  "Country_long": "United States of America",
  "Longitude": -118.25443,
  "Latitude": 34.052567
 },
 {
  "City": "Moss Landing",
  "Country_long": "United States of America",
  "Longitude": -121.78466,
  "Latitude": 36.795307
 },
 {
  "City": "Bellevue",
  "Country_long": "United States of America",
  "Longitude": -122.15341,
  "Latitude": 47.561195
 },
 {
  "City": "Bedford",
  "Country_long": "United States of America",
  "Longitude": -71.27599,
  "Latitude": 42.491673
 },
 {
  "City": "Bellevue",
  "Country_long": "United States of America",
  "Longitude": -122.15341,
  "Latitude": 47.561195
 },
 {
  "City": "Palo Alto",
  "Country_long": "United States of America",
  "Longitude": -122.1604,
  "Latitude": 37.409912
 },
 {
  "City": "Hoffman Estates",
  "Country_long": "United States of America",
  "Longitude": -88.11012,
  "Latitude": 42.07632
 },
 {
  "City": "Bari",
  "Country_long": "Italy",
  "Longitude": 16.85118,
  "Latitude": 41.11773
 },
 {
  "City": "Bellevue",
  "Country_long": "United States of America",
  "Longitude": -122.15341,
  "Latitude": 47.561195
 },
 {
  "City": "Utrecht",
  "Country_long": "Netherlands",
  "Longitude": 5.12222,
  "Latitude": 52.09083
 },
 {
  "City": "Bellevue",
  "Country_long": "United States of America",
  "Longitude": -122.15341,
  "Latitude": 47.561195
 },
 {
  "City": "Nice",
  "Country_long": "France",
  "Longitude": 7.26608,
  "Latitude": 43.70313
 },
 {
  "City": "Bellevue",
  "Country_long": "United States of America",
  "Longitude": -122.15341,
  "Latitude": 47.561195
 },
 {
  "City": "Bellevue",
  "Country_long": "United States of America",
  "Longitude": -122.15341,
  "Latitude": 47.561195
 },
 {
  "City": "Bellevue",
  "Country_long": "United States of America",
  "Longitude": -122.15341,
  "Latitude": 47.561195
 },
 {
  "City": "Indianapolis",
  "Country_long": "United States of America",
  "Longitude": -86.15804,
  "Latitude": 39.76838
 },
 {
  "City": "Milan",
  "Country_long": "Italy",
  "Longitude": 9.18951,
  "Latitude": 45.46427
 },
 {
  "City": "Arlington",
  "Country_long": "United States of America",
  "Longitude": -97.10807,
  "Latitude": 32.73569
 },
 {
  "City": "Rancho Cordova",
  "Country_long": "United States of America",
  "Longitude": -121.30273,
  "Latitude": 38.58907
 },
 {
  "City": "Bellevue",
  "Country_long": "United States of America",
  "Longitude": -122.15341,
  "Latitude": 47.561195
 },
 {
  "City": "Seinajoki",
  "Country_long": "Finland",
  "Longitude": 22.82822,
  "Latitude": 62.79446
 },
 {
  "City": "Vancouver",
  "Country_long": "Canada",
  "Longitude": -123.1205,
  "Latitude": 49.28416
 },
 {
  "City": "Bellevue",
  "Country_long": "United States of America",
  "Longitude": -122.15341,
  "Latitude": 47.561195
 },
 {
  "City": "Milwaukee",
  "Country_long": "United States of America",
  "Longitude": -88.04337,
  "Latitude": 43.04785
 },
 {
  "City": "-",
  "Country_long": "United States of America",
  "Longitude": -74.00597,
  "Latitude": 40.71427
 },
 {
  "City": "Utrecht",
  "Country_long": "Netherlands",
  "Longitude": 5.12222,
  "Latitude": 52.09083
 },
 {
  "City": "Bellevue",
  "Country_long": "United States of America",
  "Longitude": -122.15341,
  "Latitude": 47.561195
 },
 {
  "City": "Bellevue",
  "Country_long": "United States of America",
  "Longitude": -122.15341,
  "Latitude": 47.561195
 },
 {
  "City": "Saint Louis",
  "Country_long": "United States of America",
  "Longitude": -90.19789,
  "Latitude": 38.62727
 },
 {
  "City": "Birmingham",
  "Country_long": "United States of America",
  "Longitude": -86.80249,
  "Latitude": 33.52066
 },
 {
  "City": "Lake Mary",
  "Country_long": "United States of America",
  "Longitude": -81.34584,
  "Latitude": 28.75992
 },
 {
  "City": "Bellevue",
  "Country_long": "United States of America",
  "Longitude": -122.15341,
  "Latitude": 47.561195
 },
 {
  "City": "Bellevue",
  "Country_long": "United States of America",
  "Longitude": -122.15341,
  "Latitude": 47.561195
 },
 {
  "City": "Ashburn",
  "Country_long": "United States of America",
  "Longitude": -77.48749,
  "Latitude": 39.04372
 },
 {
  "City": "Bellevue",
  "Country_long": "United States of America",
  "Longitude": -122.15341,
  "Latitude": 47.561195
 },
 {
  "City": "Bellevue",
  "Country_long": "United States of America",
  "Longitude": -122.15341,
  "Latitude": 47.561195
 },
 {
  "City": "Bellevue",
  "Country_long": "United States of America",
  "Longitude": -122.15341,
  "Latitude": 47.561195
 },
 {
  "City": "Provo",
  "Country_long": "United States of America",
  "Longitude": -111.65853,
  "Latitude": 40.23384
 },
 {
  "City": "Bellevue",
  "Country_long": "United States of America",
  "Longitude": -122.15341,
  "Latitude": 47.561195
 },
 {
  "City": "Ashburn",
  "Country_long": "United States of America",
  "Longitude": -77.48749,
  "Latitude": 39.04372
 },
 {
  "City": "Phoenix",
  "Country_long": "United States of America",
  "Longitude": -112.07404,
  "Latitude": 33.44838
 },
 {
  "City": "Frankfurt am Main",
  "Country_long": "Germany",
  "Longitude": 8.68417,
  "Latitude": 50.11552
 },
 {
  "City": "Providence",
  "Country_long": "United States of America",
  "Longitude": -71.41283,
  "Latitude": 41.82399
 },
 {
  "City": "Belmont",
  "Country_long": "United States of America",
  "Longitude": -122.294624,
  "Latitude": 37.517265
 },
 {
  "City": "Bellevue",
  "Country_long": "United States of America",
  "Longitude": -122.15341,
  "Latitude": 47.561195
 },
 {
  "City": "Milwaukee",
  "Country_long": "United States of America",
  "Longitude": -87.90647,
  "Latitude": 43.0389
 },
 {
  "City": "Lubbock",
  "Country_long": "United States of America",
  "Longitude": -101.92709,
  "Latitude": 33.52122
 },
 {
  "City": "Baltimore",
  "Country_long": "United States of America",
  "Longitude": -76.61219,
  "Latitude": 39.29038
 },
 {
  "City": "Palo Alto",
  "Country_long": "United States of America",
  "Longitude": -122.1604,
  "Latitude": 37.409912
 },
 {
  "City": "Bellevue",
  "Country_long": "United States of America",
  "Longitude": -122.15341,
  "Latitude": 47.561195
 },
 {
  "City": "Bellevue",
  "Country_long": "United States of America",
  "Longitude": -122.15341,
  "Latitude": 47.561195
 },
 {
  "City": "Bellevue",
  "Country_long": "United States of America",
  "Longitude": -122.15341,
  "Latitude": 47.561195
 },
 {
  "City": "Winnipeg",
  "Country_long": "Canada",
  "Longitude": -97.104385,
  "Latitude": 49.83102
 },
 {
  "City": "Bellevue",
  "Country_long": "United States of America",
  "Longitude": -122.15341,
  "Latitude": 47.561195
 },
 {
  "City": "Corral",
  "Country_long": "United States of America",
  "Longitude": -114.99738,
  "Latitude": 43.3199
 },
 {
  "City": "New York City",
  "Country_long": "United States of America",
  "Longitude": -74.00597,
  "Latitude": 40.71427
 },
 {
  "City": "Belmont",
  "Country_long": "United States of America",
  "Longitude": -122.294624,
  "Latitude": 37.517265
 },
 {
  "City": "Palo Alto",
  "Country_long": "United States of America",
  "Longitude": -122.1604,
  "Latitude": 37.409912
 },
 {
  "City": "Port Elizabeth",
  "Country_long": "South Africa",
  "Longitude": 25.57007,
  "Latitude": -33.91799
 },
 {
  "City": "Poughkeepsie",
  "Country_long": "United States of America",
  "Longitude": -73.91528,
  "Latitude": 41.701645
 },
 {
  "City": "Indianapolis",
  "Country_long": "United States of America",
  "Longitude": -86.15804,
  "Latitude": 39.76838
 },
 {
  "City": "Cupertino",
  "Country_long": "United States of America",
  "Longitude": -122.03218,
  "Latitude": 37.323
 },
 {
  "City": "Bellevue",
  "Country_long": "United States of America",
  "Longitude": -122.15341,
  "Latitude": 47.561195
 },
 {
  "City": "Portland",
  "Country_long": "United States of America",
  "Longitude": -122.67621,
  "Latitude": 45.52345
 },
 {
  "City": "Horsham",
  "Country_long": "United States of America",
  "Longitude": -75.15152,
  "Latitude": 40.18184
 },
 {
  "City": "Atlanta",
  "Country_long": "United States of America",
  "Longitude": -84.38798,
  "Latitude": 33.749
 },
 {
  "City": "Memphis",
  "Country_long": "United States of America",
  "Longitude": -90.04898,
  "Latitude": 35.14953
 },
 {
  "City": "Bellevue",
  "Country_long": "United States of America",
  "Longitude": -122.15341,
  "Latitude": 47.561195
 },
 {
  "City": "Moscow",
  "Country_long": "Russian Federation",
  "Longitude": 37.61556,
  "Latitude": 55.75222
 },
 {
  "City": "San Jose",
  "Country_long": "United States of America",
  "Longitude": -121.932495,
  "Latitude": 37.31568
 },
 {
  "City": "Westlake Village",
  "Country_long": "United States of America",
  "Longitude": -118.82262,
  "Latitude": 34.19292
 },
 {
  "City": "San Diego",
  "Country_long": "United States of America",
  "Longitude": -117.20095,
  "Latitude": 32.894405
 },
 {
  "City": "Snowflake",
  "Country_long": "United States of America",
  "Longitude": -110.07845,
  "Latitude": 34.51337
 },
 {
  "City": "Newark",
  "Country_long": "United States of America",
  "Longitude": -74.17237,
  "Latitude": 40.73566
 },
 {
  "City": "Bellevue",
  "Country_long": "United States of America",
  "Longitude": -122.15341,
  "Latitude": 47.561195
 },
 {
  "City": "New York City",
  "Country_long": "United States of America",
  "Longitude": -74.00597,
  "Latitude": 40.71427
 },
 {
  "City": "Irvine",
  "Country_long": "United States of America",
  "Longitude": -117.82311,
  "Latitude": 33.66946
 },
 {
  "City": "San Francisco",
  "Country_long": "United States of America",
  "Longitude": -122.41942,
  "Latitude": 37.77493
 },
 {
  "City": "Los Angeles",
  "Country_long": "United States of America",
  "Longitude": -118.24368,
  "Latitude": 34.05223
 },
 {
  "City": "Bellevue",
  "Country_long": "United States of America",
  "Longitude": -122.15341,
  "Latitude": 47.561195
 },
 {
  "City": "Dallas",
  "Country_long": "United States of America",
  "Longitude": -96.80667,
  "Latitude": 32.78306
 },
 {
  "City": "Kingman",
  "Country_long": "United States of America",
  "Longitude": -114.0164,
  "Latitude": 35.2445
 },
 {
  "City": "Bellevue",
  "Country_long": "United States of America",
  "Longitude": -122.15341,
  "Latitude": 47.561195
 },
 {
  "City": "Columbus",
  "Country_long": "United States of America",
  "Longitude": -83.01277,
  "Latitude": 39.96638
 },
 {
  "City": "Seattle",
  "Country_long": "United States of America",
  "Longitude": -122.3462,
  "Latitude": 47.6275
 },
 {
  "City": "Bellevue",
  "Country_long": "United States of America",
  "Longitude": -122.15341,
  "Latitude": 47.561195
 },
 {
  "City": "Albuquerque",
  "Country_long": "United States of America",
  "Longitude": -106.51665,
  "Latitude": 34.98283
 },
 {
  "City": "Bellevue",
  "Country_long": "United States of America",
  "Longitude": -122.15341,
  "Latitude": 47.561195
 },
 {
  "City": "Tucson",
  "Country_long": "United States of America",
  "Longitude": -110.8941,
  "Latitude": 32.1177
 },
 {
  "City": "Random Lake",
  "Country_long": "United States of America",
  "Longitude": -87.95289,
  "Latitude": 43.55474
 },
 {
  "City": "Berkeley",
  "Country_long": "United States of America",
  "Longitude": -122.24486,
  "Latitude": 37.85737
 },
 {
  "City": "Bellevue",
  "Country_long": "United States of America",
  "Longitude": -122.15341,
  "Latitude": 47.561195
 },
 {
  "City": "Santa Cruz de la Sierra",
  "Country_long": "Bolivia (Plurinational State of)",
  "Longitude": -63.16667,
  "Latitude": -17.8
 },
 {
  "City": "Charleston",
  "Country_long": "United States of America",
  "Longitude": -79.93772,
  "Latitude": 32.77864
 },
 {
  "City": "Santa Clara",
  "Country_long": "United States of America",
  "Longitude": -121.9582,
  "Latitude": 37.3521
 },
 {
  "City": "Atlanta",
  "Country_long": "United States of America",
  "Longitude": -84.37763,
  "Latitude": 33.770844
 },
 {
  "City": "Bellevue",
  "Country_long": "United States of America",
  "Longitude": -122.15341,
  "Latitude": 47.561195
 },
 {
  "City": "Nice",
  "Country_long": "France",
  "Longitude": 7.26608,
  "Latitude": 43.70313
 },
 {
  "City": "Johannesburg",
  "Country_long": "South Africa",
  "Longitude": 28.04363,
  "Latitude": -26.20227
 },
 {
  "City": "Montreal",
  "Country_long": "Canada",
  "Longitude": -73.58781,
  "Latitude": 45.50884
 },
 {
  "City": "Ashburn",
  "Country_long": "United States of America",
  "Longitude": -77.48749,
  "Latitude": 39.04372
 },
 {
  "City": "Bellevue",
  "Country_long": "United States of America",
  "Longitude": -122.15341,
  "Latitude": 47.561195
 },
 {
  "City": "Bellevue",
  "Country_long": "United States of America",
  "Longitude": -122.15341,
  "Latitude": 47.561195
 },
 {
  "City": "Bellevue",
  "Country_long": "United States of America",
  "Longitude": -122.15341,
  "Latitude": 47.561195
 },
 {
  "City": "Bellevue",
  "Country_long": "United States of America",
  "Longitude": -122.15341,
  "Latitude": 47.561195
 },
 {
  "City": "Versailles",
  "Country_long": "France",
  "Longitude": 2.13333,
  "Latitude": 48.8
 },
 {
  "City": "Bellevue",
  "Country_long": "United States of America",
  "Longitude": -122.15341,
  "Latitude": 47.561195
 },
 {
  "City": "Bellevue",
  "Country_long": "United States of America",
  "Longitude": -122.15341,
  "Latitude": 47.561195
 },
 {
  "City": "Santa Clara",
  "Country_long": "United States of America",
  "Longitude": -121.98491,
  "Latitude": 37.34773
 },
 {
  "City": "New York City",
  "Country_long": "United States of America",
  "Longitude": -74.00597,
  "Latitude": 40.71427
 },
 {
  "City": "Portland",
  "Country_long": "United States of America",
  "Longitude": -122.67621,
  "Latitude": 45.52345
 },
 {
  "City": "Bellevue",
  "Country_long": "United States of America",
  "Longitude": -122.15341,
  "Latitude": 47.561195
 },
 {
  "City": "Vienna",
  "Country_long": "Austria",
  "Longitude": 16.37208,
  "Latitude": 48.20849
 },
 {
  "City": "Bellevue",
  "Country_long": "United States of America",
  "Longitude": -122.15341,
  "Latitude": 47.561195
 },
 {
  "City": "Montreal",
  "Country_long": "Canada",
  "Longitude": -73.57671,
  "Latitude": 45.496037
 },
 {
  "City": "Phoenix",
  "Country_long": "United States of America",
  "Longitude": -112.11909,
  "Latitude": 33.597473
 },
 {
  "City": "Bellevue",
  "Country_long": "United States of America",
  "Longitude": -122.15341,
  "Latitude": 47.561195
 },
 {
  "City": "San Diego",
  "Country_long": "United States of America",
  "Longitude": -117.20095,
  "Latitude": 32.894405
 },
 {
  "City": "Bellevue",
  "Country_long": "United States of America",
  "Longitude": -122.15341,
  "Latitude": 47.561195
 },
 {
  "City": "Bellevue",
  "Country_long": "United States of America",
  "Longitude": -122.15341,
  "Latitude": 47.561195
 },
 {
  "City": "Stockholm",
  "Country_long": "Sweden",
  "Longitude": 18.0649,
  "Latitude": 59.33258
 },
 {
  "City": "Naperville",
  "Country_long": "United States of America",
  "Longitude": -88.14729,
  "Latitude": 41.78586
 },
 {
  "City": "Bellevue",
  "Country_long": "United States of America",
  "Longitude": -122.15341,
  "Latitude": 47.561195
 },
 {
  "City": "Waltham",
  "Country_long": "United States of America",
  "Longitude": -71.25922,
  "Latitude": 42.39871
 },
 {
  "City": "Schaumburg",
  "Country_long": "United States of America",
  "Longitude": -88.04607,
  "Latitude": 42.06907
 },
 {
  "City": "Dallas",
  "Country_long": "United States of America",
  "Longitude": -96.8205,
  "Latitude": 32.78634
 },
 {
  "City": "Bellevue",
  "Country_long": "United States of America",
  "Longitude": -122.15341,
  "Latitude": 47.561195
 },
 {
  "City": "Bellevue",
  "Country_long": "United States of America",
  "Longitude": -122.15341,
  "Latitude": 47.561195
 },
 {
  "City": "Taipei",
  "Country_long": "Taiwan (Province of China)",
  "Longitude": 121.53185,
  "Latitude": 25.04776
 },
 {
  "City": "Freeport",
  "Country_long": "United States of America",
  "Longitude": -73.58318,
  "Latitude": 40.6576
 },
 {
  "City": "Palo Alto",
  "Country_long": "United States of America",
  "Longitude": -122.1604,
  "Latitude": 37.409912
 },
 {
  "City": "Bellevue",
  "Country_long": "United States of America",
  "Longitude": -122.15341,
  "Latitude": 47.561195
 },
 {
  "City": "Hoffman Estates",
  "Country_long": "United States of America",
  "Longitude": -88.11012,
  "Latitude": 42.07632
 },
 {
  "City": "Newark",
  "Country_long": "United States of America",
  "Longitude": -74.17237,
  "Latitude": 40.73566
 },
 {
  "City": "Bellevue",
  "Country_long": "United States of America",
  "Longitude": -122.15341,
  "Latitude": 47.561195
 },
 {
  "City": "Newport",
  "Country_long": "United States of America",
  "Longitude": -92.9981,
  "Latitude": 44.8722
 },
 {
  "City": "San Francisco",
  "Country_long": "United States of America",
  "Longitude": -122.46274,
  "Latitude": 37.796986
 },
 {
  "City": "Bellevue",
  "Country_long": "United States of America",
  "Longitude": -122.15341,
  "Latitude": 47.561195
 },
 {
  "City": "Bronx",
  "Country_long": "United States of America",
  "Longitude": -73.82328,
  "Latitude": 40.82699
 },
 {
  "City": "Plymouth",
  "Country_long": "United States of America",
  "Longitude": -83.5195,
  "Latitude": 42.3708
 },
 {
  "City": "Atlanta",
  "Country_long": "United States of America",
  "Longitude": -84.38798,
  "Latitude": 33.749
 },
 {
  "City": "Bellevue",
  "Country_long": "United States of America",
  "Longitude": -122.15341,
  "Latitude": 47.561195
 },
 {
  "City": "Tokyo",
  "Country_long": "Japan",
  "Longitude": 139.6917,
  "Latitude": 35.689507
 },
 {
  "City": "New York City",
  "Country_long": "United States of America",
  "Longitude": -74.00597,
  "Latitude": 40.71427
 },
 {
  "City": "Wittensville",
  "Country_long": "United States of America",
  "Longitude": -82.81419,
  "Latitude": 37.87223
 },
 {
  "City": "Bellevue",
  "Country_long": "United States of America",
  "Longitude": -122.15341,
  "Latitude": 47.561195
 },
 {
  "City": "Belmont",
  "Country_long": "United States of America",
  "Longitude": -122.24883,
  "Latitude": 37.53244
 },
 {
  "City": "Bellevue",
  "Country_long": "United States of America",
  "Longitude": -122.15341,
  "Latitude": 47.561195
 },
 {
  "City": "Waterford",
  "Country_long": "United States of America",
  "Longitude": -73.70262,
  "Latitude": 42.81954
 },
 {
  "City": "Bellevue",
  "Country_long": "United States of America",
  "Longitude": -122.15341,
  "Latitude": 47.561195
 },
 {
  "City": "Bellevue",
  "Country_long": "United States of America",
  "Longitude": -122.15341,
  "Latitude": 47.561195
 },
 {
  "City": "Palo Alto",
  "Country_long": "United States of America",
  "Longitude": -122.1604,
  "Latitude": 37.409912
 },
 {
  "City": "Qunying",
  "Country_long": "China",
  "Longitude": 109.87084,
  "Latitude": 18.58473
 },
 {
  "City": "Bellevue",
  "Country_long": "United States of America",
  "Longitude": -122.15341,
  "Latitude": 47.561195
 },
 {
  "City": "Westlake Village",
  "Country_long": "United States of America",
  "Longitude": -118.82262,
  "Latitude": 34.19292
 },
 {
  "City": "Bellevue",
  "Country_long": "United States of America",
  "Longitude": -122.15341,
  "Latitude": 47.561195
 },
 {
  "City": "Portland",
  "Country_long": "United States of America",
  "Longitude": -122.67621,
  "Latitude": 45.52345
 },
 {
  "City": "Ashburn",
  "Country_long": "United States of America",
  "Longitude": -77.48749,
  "Latitude": 39.04372
 },
 {
  "City": "Bellevue",
  "Country_long": "United States of America",
  "Longitude": -122.15341,
  "Latitude": 47.561195
 },
 {
  "City": "Oak Brook",
  "Country_long": "United States of America",
  "Longitude": -87.92895,
  "Latitude": 41.83281
 },
 {
  "City": "Ashburn",
  "Country_long": "United States of America",
  "Longitude": -77.4885,
  "Latitude": 39.03408
 },
 {
  "City": "Los Angeles",
  "Country_long": "United States of America",
  "Longitude": -118.24368,
  "Latitude": 34.05223
 },
 {
  "City": "Bluffdale",
  "Country_long": "United States of America",
  "Longitude": -111.96272,
  "Latitude": 40.535263
 },
 {
  "City": "Lewes",
  "Country_long": "United States of America",
  "Longitude": -75.17418,
  "Latitude": 38.7258
 },
 {
  "City": "Florence",
  "Country_long": "United States of America",
  "Longitude": -87.67725,
  "Latitude": 34.79981
 },
 {
  "City": "Greenwood Village",
  "Country_long": "United States of America",
  "Longitude": -104.88393,
  "Latitude": 39.613087
 },
 {
  "City": "Bellevue",
  "Country_long": "United States of America",
  "Longitude": -122.15341,
  "Latitude": 47.561195
 },
 {
  "City": "Bellevue",
  "Country_long": "United States of America",
  "Longitude": -122.15341,
  "Latitude": 47.561195
 },
 {
  "City": "Mason",
  "Country_long": "United States of America",
  "Longitude": -84.30994,
  "Latitude": 39.36006
 },
 {
  "City": "Castries",
  "Country_long": "Saint Lucia",
  "Longitude": -61.00614,
  "Latitude": 13.9957
 },
 {
  "City": "Columbus",
  "Country_long": "United States of America",
  "Longitude": -83.01277,
  "Latitude": 39.96638
 },
 {
  "City": "Los Angeles",
  "Country_long": "United States of America",
  "Longitude": -118.24368,
  "Latitude": 34.05223
 },
 {
  "City": "San Francisco",
  "Country_long": "United States of America",
  "Longitude": -122.3952,
  "Latitude": 37.7757
 },
 {
  "City": "Bellevue",
  "Country_long": "United States of America",
  "Longitude": -122.15341,
  "Latitude": 47.561195
 },
 {
  "City": "Rosemead",
  "Country_long": "United States of America",
  "Longitude": -118.08162,
  "Latitude": 34.0614
 },
 {
  "City": "Honolulu",
  "Country_long": "United States of America",
  "Longitude": -157.8806,
  "Latitude": 21.347012
 },
 {
  "City": "Naples",
  "Country_long": "Italy",
  "Longitude": 14.25,
  "Latitude": 40.83333
 },
 {
  "City": "Bellevue",
  "Country_long": "United States of America",
  "Longitude": -122.15341,
  "Latitude": 47.561195
 },
 {
  "City": "Bellevue",
  "Country_long": "United States of America",
  "Longitude": -122.15341,
  "Latitude": 47.561195
 },
 {
  "City": "Knoxville",
  "Country_long": "United States of America",
  "Longitude": -83.98196,
  "Latitude": 36.0063
 },
 {
  "City": "Bellevue",
  "Country_long": "United States of America",
  "Longitude": -122.15341,
  "Latitude": 47.561195
 },
 {
  "City": "Boston",
  "Country_long": "United States of America",
  "Longitude": -71.05694,
  "Latitude": 42.34875
 },
 {
  "City": "Oak Lawn",
  "Country_long": "United States of America",
  "Longitude": -87.75811,
  "Latitude": 41.71087
 },
 {
  "City": "Bellevue",
  "Country_long": "United States of America",
  "Longitude": -122.15341,
  "Latitude": 47.561195
 },
 {
  "City": "Piscataway",
  "Country_long": "United States of America",
  "Longitude": -74.46017,
  "Latitude": 40.554516
 },
 {
  "City": "Chippewa Falls",
  "Country_long": "United States of America",
  "Longitude": -91.395836,
  "Latitude": 45.031666
 },
 {
  "City": "Bronx",
  "Country_long": "United States of America",
  "Longitude": -73.82328,
  "Latitude": 40.82699
 },
 {
  "City": "Dallas",
  "Country_long": "United States of America",
  "Longitude": -96.80667,
  "Latitude": 32.78306
 },
 {
  "City": "Bellevue",
  "Country_long": "United States of America",
  "Longitude": -122.15341,
  "Latitude": 47.561195
 },
 {
  "City": "Seattle",
  "Country_long": "United States of America",
  "Longitude": -122.33207,
  "Latitude": 47.60621
 },
 {
  "City": "Bellevue",
  "Country_long": "United States of America",
  "Longitude": -122.15341,
  "Latitude": 47.561195
 },
 {
  "City": "Bellevue",
  "Country_long": "United States of America",
  "Longitude": -122.15341,
  "Latitude": 47.561195
 },
 {
  "City": "Singapore",
  "Country_long": "Singapore",
  "Longitude": 103.85007,
  "Latitude": 1.28967
 },
 {
  "City": "Oklahoma City",
  "Country_long": "United States of America",
  "Longitude": -97.51643,
  "Latitude": 35.46756
 },
 {
  "City": "Taipei",
  "Country_long": "Taiwan (Province of China)",
  "Longitude": 121.53185,
  "Latitude": 25.04776
 },
 {
  "City": "Bellevue",
  "Country_long": "United States of America",
  "Longitude": -122.15341,
  "Latitude": 47.561195
 },
 {
  "City": "Ottawa",
  "Country_long": "Canada",
  "Longitude": -75.746796,
  "Latitude": 45.38038
 },
 {
  "City": "Bellevue",
  "Country_long": "United States of America",
  "Longitude": -122.15341,
  "Latitude": 47.561195
 },
 {
  "City": "Ashburn",
  "Country_long": "United States of America",
  "Longitude": -77.48749,
  "Latitude": 39.04372
 },
 {
  "City": "Bellevue",
  "Country_long": "United States of America",
  "Longitude": -122.15341,
  "Latitude": 47.561195
 },
 {
  "City": "Topeka",
  "Country_long": "United States of America",
  "Longitude": -95.67804,
  "Latitude": 39.04833
 },
 {
  "City": "Kuala Lumpur",
  "Country_long": "Malaysia",
  "Longitude": 101.68653,
  "Latitude": 3.1412
 },
 {
  "City": "San Francisco",
  "Country_long": "United States of America",
  "Longitude": -122.41942,
  "Latitude": 37.77493
 },
 {
  "City": "Bellevue",
  "Country_long": "United States of America",
  "Longitude": -122.15341,
  "Latitude": 47.561195
 },
 {
  "City": "Bellevue",
  "Country_long": "United States of America",
  "Longitude": -122.15341,
  "Latitude": 47.561195
 },
 {
  "City": "Bellevue",
  "Country_long": "United States of America",
  "Longitude": -122.15341,
  "Latitude": 47.561195
 },
 {
  "City": "Belmont",
  "Country_long": "United States of America",
  "Longitude": -122.24883,
  "Latitude": 37.53244
 },
 {
  "City": "Indianapolis",
  "Country_long": "United States of America",
  "Longitude": -86.15804,
  "Latitude": 39.76838
 },
 {
  "City": "Richardson",
  "Country_long": "United States of America",
  "Longitude": -96.72972,
  "Latitude": 32.94818
 },
 {
  "City": "Austin",
  "Country_long": "United States of America",
  "Longitude": -97.74328,
  "Latitude": 30.27145
 },
 {
  "City": "Bellevue",
  "Country_long": "United States of America",
  "Longitude": -122.15341,
  "Latitude": 47.561195
 },
 {
  "City": "New York City",
  "Country_long": "United States of America",
  "Longitude": -74.00597,
  "Latitude": 40.71427
 },
 {
  "City": "Bellevue",
  "Country_long": "United States of America",
  "Longitude": -122.15341,
  "Latitude": 47.561195
 },
 {
  "City": "Columbus",
  "Country_long": "United States of America",
  "Longitude": -83.01277,
  "Latitude": 39.96638
 },
 {
  "City": "Bellevue",
  "Country_long": "United States of America",
  "Longitude": -122.15341,
  "Latitude": 47.561195
 },
 {
  "City": "Temple Terrace",
  "Country_long": "United States of America",
  "Longitude": -82.36568,
  "Latitude": 28.03024
 },
 {
  "City": "Palisades",
  "Country_long": "United States of America",
  "Longitude": -73.91333,
  "Latitude": 41.01111
 },
 {
  "City": "Bellevue",
  "Country_long": "United States of America",
  "Longitude": -122.15341,
  "Latitude": 47.561195
 },
 {
  "City": "Westlake Village",
  "Country_long": "United States of America",
  "Longitude": -118.82262,
  "Latitude": 34.19292
 },
 {
  "City": "Milwaukee",
  "Country_long": "United States of America",
  "Longitude": -87.90647,
  "Latitude": 43.0389
 },
 {
  "City": "Rosemead",
  "Country_long": "United States of America",
  "Longitude": -118.08162,
  "Latitude": 34.0614
 },
 {
  "City": "Rochester",
  "Country_long": "United States of America",
  "Longitude": -77.56136,
  "Latitude": 43.175575
 },
 {
  "City": "Bellevue",
  "Country_long": "United States of America",
  "Longitude": -122.15341,
  "Latitude": 47.561195
 },
 {
  "City": "Cupertino",
  "Country_long": "United States of America",
  "Longitude": -122.03218,
  "Latitude": 37.323
 },
 {
  "City": "Sacramento",
  "Country_long": "United States of America",
  "Longitude": -121.488,
  "Latitude": 38.5762
 },
 {
  "City": "Ashburn",
  "Country_long": "United States of America",
  "Longitude": -77.48749,
  "Latitude": 39.04372
 },
 {
  "City": "Austin",
  "Country_long": "United States of America",
  "Longitude": -97.70022,
  "Latitude": 30.14568
 },
 {
  "City": "Bellevue",
  "Country_long": "United States of America",
  "Longitude": -122.15341,
  "Latitude": 47.561195
 },
 {
  "City": "Stockholm",
  "Country_long": "Sweden",
  "Longitude": 18.0649,
  "Latitude": 59.33258
 },
 {
  "City": "Bellevue",
  "Country_long": "United States of America",
  "Longitude": -122.15341,
  "Latitude": 47.561195
 },
 {
  "City": "Zurich",
  "Country_long": "Switzerland",
  "Longitude": 8.55,
  "Latitude": 47.36667
 },
 {
  "City": "Bellevue",
  "Country_long": "United States of America",
  "Longitude": -122.15341,
  "Latitude": 47.561195
 },
 {
  "City": "Pasadena",
  "Country_long": "United States of America",
  "Longitude": -118.13914,
  "Latitude": 34.147392
 },
 {
  "City": "Evansville",
  "Country_long": "United States of America",
  "Longitude": -87.53235,
  "Latitude": 37.97504
 },
 {
  "City": "Kansas City",
  "Country_long": "United States of America",
  "Longitude": -94.57857,
  "Latitude": 39.09973
 },
 {
  "City": "Bellevue",
  "Country_long": "United States of America",
  "Longitude": -122.15341,
  "Latitude": 47.561195
 },
 {
  "City": "Bellevue",
  "Country_long": "United States of America",
  "Longitude": -122.15341,
  "Latitude": 47.561195
 },
 {
  "City": "Monroe",
  "Country_long": "United States of America",
  "Longitude": -92.045235,
  "Latitude": 32.54833
 },
 {
  "City": "Bellevue",
  "Country_long": "United States of America",
  "Longitude": -122.15341,
  "Latitude": 47.561195
 },
 {
  "City": "Bellevue",
  "Country_long": "United States of America",
  "Longitude": -122.15341,
  "Latitude": 47.561195
 },
 {
  "City": "Bremen",
  "Country_long": "Germany",
  "Longitude": 8.80777,
  "Latitude": 53.07516
 },
 {
  "City": "Indianapolis",
  "Country_long": "United States of America",
  "Longitude": -86.15652,
  "Latitude": 39.772247
 },
 {
  "City": "Helsinki",
  "Country_long": "Finland",
  "Longitude": 24.93545,
  "Latitude": 60.16952
 },
 {
  "City": "Huntsville",
  "Country_long": "United States of America",
  "Longitude": -86.56736,
  "Latitude": 34.72758
 },
 {
  "City": "Newark",
  "Country_long": "United States of America",
  "Longitude": -74.17237,
  "Latitude": 40.73566
 },
 {
  "City": "Bellevue",
  "Country_long": "United States of America",
  "Longitude": -122.15341,
  "Latitude": 47.561195
 },
 {
  "City": "Dallas",
  "Country_long": "United States of America",
  "Longitude": -96.80667,
  "Latitude": 32.78306
 },
 {
  "City": "Starkville",
  "Country_long": "United States of America",
  "Longitude": -88.81839,
  "Latitude": 33.4504
 },
 {
  "City": "Mexico City",
  "Country_long": "Mexico",
  "Longitude": -99.12766,
  "Latitude": 19.42847
 },
 {
  "City": "Bellevue",
  "Country_long": "United States of America",
  "Longitude": -122.15341,
  "Latitude": 47.561195
 },
 {
  "City": "Bellevue",
  "Country_long": "United States of America",
  "Longitude": -122.15341,
  "Latitude": 47.561195
 },
 {
  "City": "Norristown",
  "Country_long": "United States of America",
  "Longitude": -75.3399,
  "Latitude": 40.1215
 },
 {
  "City": "Bellevue",
  "Country_long": "United States of America",
  "Longitude": -122.15341,
  "Latitude": 47.561195
 },
 {
  "City": "Richmond",
  "Country_long": "Canada",
  "Longitude": -122.98681,
  "Latitude": 49.16754
 },
 {
  "City": "Los Angeles",
  "Country_long": "United States of America",
  "Longitude": -118.44974,
  "Latitude": 34.04346
 },
 {
  "City": "Petah Tikva",
  "Country_long": "Israel",
  "Longitude": 34.88503,
  "Latitude": 32.09174
 },
 {
  "City": "Bellevue",
  "Country_long": "United States of America",
  "Longitude": -122.15341,
  "Latitude": 47.561195
 },
 {
  "City": "Bellevue",
  "Country_long": "United States of America",
  "Longitude": -122.15341,
  "Latitude": 47.561195
 },
 {
  "City": "Karlsruhe",
  "Country_long": "Germany",
  "Longitude": 8.38583,
  "Latitude": 49.00472
 },
 {
  "City": "Temple Terrace",
  "Country_long": "United States of America",
  "Longitude": -82.36568,
  "Latitude": 28.03024
 },
 {
  "City": "Bellevue",
  "Country_long": "United States of America",
  "Longitude": -122.15341,
  "Latitude": 47.561195
 },
 {
  "City": "Bellevue",
  "Country_long": "United States of America",
  "Longitude": -122.15341,
  "Latitude": 47.561195
 },
 {
  "City": "Bellevue",
  "Country_long": "United States of America",
  "Longitude": -122.15341,
  "Latitude": 47.561195
 },
 {
  "City": "Bellevue",
  "Country_long": "United States of America",
  "Longitude": -122.15341,
  "Latitude": 47.561195
 },
 {
  "City": "Boulder",
  "Country_long": "United States of America",
  "Longitude": -105.26633,
  "Latitude": 40.0074
 },
 {
  "City": "Riverside",
  "Country_long": "United States of America",
  "Longitude": -117.39736,
  "Latitude": 33.940437
 },
 {
  "City": "Newark",
  "Country_long": "United States of America",
  "Longitude": -74.17237,
  "Latitude": 40.73566
 },
 {
  "City": "San Jose",
  "Country_long": "United States of America",
  "Longitude": -121.89798,
  "Latitude": 37.335842
 },
 {
  "City": "Bellevue",
  "Country_long": "United States of America",
  "Longitude": -122.15341,
  "Latitude": 47.561195
 },
 {
  "City": "Bellevue",
  "Country_long": "United States of America",
  "Longitude": -122.15341,
  "Latitude": 47.561195
 },
 {
  "City": "Bellevue",
  "Country_long": "United States of America",
  "Longitude": -122.15341,
  "Latitude": 47.561195
 },
 {
  "City": "Nacka",
  "Country_long": "Sweden",
  "Longitude": 18.16372,
  "Latitude": 59.31053
 },
 {
  "City": "Bellevue",
  "Country_long": "United States of America",
  "Longitude": -122.15341,
  "Latitude": 47.561195
 },
 {
  "City": "Bluffdale",
  "Country_long": "United States of America",
  "Longitude": -111.96272,
  "Latitude": 40.535263
 },
 {
  "City": "Burbank",
  "Country_long": "United States of America",
  "Longitude": -118.32466,
  "Latitude": 34.15519
 },
 {
  "City": "Chatham",
  "Country_long": "Canada",
  "Longitude": -82.218735,
  "Latitude": 42.38095
 },
 {
  "City": "Bellevue",
  "Country_long": "United States of America",
  "Longitude": -122.15341,
  "Latitude": 47.561195
 },
 {
  "City": "Redstone Arsenal",
  "Country_long": "United States of America",
  "Longitude": -86.65459,
  "Latitude": 34.633263
 },
 {
  "City": "Bellevue",
  "Country_long": "United States of America",
  "Longitude": -122.15341,
  "Latitude": 47.561195
 },
 {
  "City": "Columbus",
  "Country_long": "United States of America",
  "Longitude": -83.01277,
  "Latitude": 39.96638
 },
 {
  "City": "Bellevue",
  "Country_long": "United States of America",
  "Longitude": -122.15341,
  "Latitude": 47.561195
 },
 {
  "City": "Kanda",
  "Country_long": "Japan",
  "Longitude": 130.983,
  "Latitude": 33.783
 },
 {
  "City": "Toronto",
  "Country_long": "Canada",
  "Longitude": -79.4163,
  "Latitude": 43.70011
 },
 {
  "City": "Vallejo",
  "Country_long": "United States of America",
  "Longitude": -122.27569,
  "Latitude": 38.100067
 },
 {
  "City": "Bellevue",
  "Country_long": "United States of America",
  "Longitude": -122.15341,
  "Latitude": 47.561195
 },
 {
  "City": "Bellevue",
  "Country_long": "United States of America",
  "Longitude": -122.15341,
  "Latitude": 47.561195
 },
 {
  "City": "Bellevue",
  "Country_long": "United States of America",
  "Longitude": -122.15341,
  "Latitude": 47.561195
 },
 {
  "City": "Ann Arbor",
  "Country_long": "United States of America",
  "Longitude": -83.7207,
  "Latitude": 42.238068
 },
 {
  "City": "Bellevue",
  "Country_long": "United States of America",
  "Longitude": -122.15341,
  "Latitude": 47.561195
 },
 {
  "City": "Ottawa",
  "Country_long": "Canada",
  "Longitude": -75.69812,
  "Latitude": 45.41117
 },
 {
  "City": "Hillside",
  "Country_long": "United States of America",
  "Longitude": -87.89834,
  "Latitude": 41.87371
 },
 {
  "City": "Rancho Cordova",
  "Country_long": "United States of America",
  "Longitude": -121.30273,
  "Latitude": 38.58907
 },
 {
  "City": "Bellevue",
  "Country_long": "United States of America",
  "Longitude": -122.15341,
  "Latitude": 47.561195
 },
 {
  "City": "Plymouth",
  "Country_long": "United States of America",
  "Longitude": -83.5195,
  "Latitude": 42.3708
 },
 {
  "City": "Arendal",
  "Country_long": "Norway",
  "Longitude": 8.77253,
  "Latitude": 58.46151
 },
 {
  "City": "Evansville",
  "Country_long": "United States of America",
  "Longitude": -87.63773,
  "Latitude": 37.989403
 },
 {
  "City": "Lihue",
  "Country_long": "United States of America",
  "Longitude": -159.36719,
  "Latitude": 21.97886
 },
 {
  "City": "Houston",
  "Country_long": "United States of America",
  "Longitude": -95.467926,
  "Latitude": 29.7486
 },
 {
  "City": "Bellevue",
  "Country_long": "United States of America",
  "Longitude": -122.15341,
  "Latitude": 47.561195
 },
 {
  "City": "Bellevue",
  "Country_long": "United States of America",
  "Longitude": -122.15341,
  "Latitude": 47.561195
 },
 {
  "City": "-",
  "Country_long": "Sweden",
  "Longitude": 18.0649,
  "Latitude": 59.33258
 },
 {
  "City": "Milton",
  "Country_long": "United Kingdom of Great Britain and Northern Ireland",
  "Longitude": -1.65,
  "Latitude": 50.73333
 },
 {
  "City": "Plymouth",
  "Country_long": "United States of America",
  "Longitude": -83.5195,
  "Latitude": 42.3708
 },
 {
  "City": "Newburgh",
  "Country_long": "United States of America",
  "Longitude": -74.01042,
  "Latitude": 41.50343
 },
 {
  "City": "Petah Tikva",
  "Country_long": "Israel",
  "Longitude": 34.88503,
  "Latitude": 32.09174
 },
 {
  "City": "Miami",
  "Country_long": "United States of America",
  "Longitude": -80.19366,
  "Latitude": 25.77427
 },
 {
  "City": "Bellevue",
  "Country_long": "United States of America",
  "Longitude": -122.15341,
  "Latitude": 47.561195
 },
 {
  "City": "Bellevue",
  "Country_long": "United States of America",
  "Longitude": -122.15341,
  "Latitude": 47.561195
 },
 {
  "City": "Boston",
  "Country_long": "United States of America",
  "Longitude": -71.05977,
  "Latitude": 42.35843
 },
 {
  "City": "Hoffman Estates",
  "Country_long": "United States of America",
  "Longitude": -88.11012,
  "Latitude": 42.07632
 },
 {
  "City": "Livonia",
  "Country_long": "United States of America",
  "Longitude": -83.35271,
  "Latitude": 42.36837
 },
 {
  "City": "Utrecht",
  "Country_long": "Netherlands",
  "Longitude": 5.12222,
  "Latitude": 52.09083
 },
 {
  "City": "Naperville",
  "Country_long": "United States of America",
  "Longitude": -88.14729,
  "Latitude": 41.78586
 },
 {
  "City": "Boston",
  "Country_long": "United States of America",
  "Longitude": -71.05977,
  "Latitude": 42.35843
 },
 {
  "City": "Lake Odessa",
  "Country_long": "United States of America",
  "Longitude": -85.13834,
  "Latitude": 42.78476
 },
 {
  "City": "Ashburn",
  "Country_long": "United States of America",
  "Longitude": -77.4885,
  "Latitude": 39.03408
 },
 {
  "City": "Toronto",
  "Country_long": "Canada",
  "Longitude": -79.455986,
  "Latitude": 43.703114
 },
 {
  "City": "Bellevue",
  "Country_long": "United States of America",
  "Longitude": -122.15341,
  "Latitude": 47.561195
 },
 {
  "City": "Bellevue",
  "Country_long": "United States of America",
  "Longitude": -122.15341,
  "Latitude": 47.561195
 },
 {
  "City": "Bellevue",
  "Country_long": "United States of America",
  "Longitude": -122.15341,
  "Latitude": 47.561195
 },
 {
  "City": "Atlanta",
  "Country_long": "United States of America",
  "Longitude": -84.47038,
  "Latitude": 33.862244
 },
 {
  "City": "Bellevue",
  "Country_long": "United States of America",
  "Longitude": -122.15341,
  "Latitude": 47.561195
 },
 {
  "City": "Bellevue",
  "Country_long": "United States of America",
  "Longitude": -122.15341,
  "Latitude": 47.561195
 },
 {
  "City": "Indianapolis",
  "Country_long": "United States of America",
  "Longitude": -86.15652,
  "Latitude": 39.772247
 },
 {
  "City": "Ashburn",
  "Country_long": "United States of America",
  "Longitude": -77.48749,
  "Latitude": 39.04372
 },
 {
  "City": "Bellevue",
  "Country_long": "United States of America",
  "Longitude": -122.15341,
  "Latitude": 47.561195
 },
 {
  "City": "Minneapolis",
  "Country_long": "United States of America",
  "Longitude": -93.2715,
  "Latitude": 44.9765
 },
 {
  "City": "Winnipeg",
  "Country_long": "Canada",
  "Longitude": -97.20587,
  "Latitude": 49.901577
 },
 {
  "City": "Lawrence",
  "Country_long": "United States of America",
  "Longitude": -80.127625,
  "Latitude": 40.305725
 },
 {
  "City": "New York City",
  "Country_long": "United States of America",
  "Longitude": -74.00597,
  "Latitude": 40.71427
 },
 {
  "City": "Santa Rosa",
  "Country_long": "United States of America",
  "Longitude": -122.73541,
  "Latitude": 38.40602
 },
 {
  "City": "Atlanta",
  "Country_long": "United States of America",
  "Longitude": -84.38798,
  "Latitude": 33.749
 },
 {
  "City": "Atlanta",
  "Country_long": "United States of America",
  "Longitude": -84.38798,
  "Latitude": 33.749
 },
 {
  "City": "Rosemead",
  "Country_long": "United States of America",
  "Longitude": -118.08162,
  "Latitude": 34.0614
 },
 {
  "City": "Bellevue",
  "Country_long": "United States of America",
  "Longitude": -122.15341,
  "Latitude": 47.561195
 },
 {
  "City": "-",
  "Country_long": "-",
  "Longitude": 0,
  "Latitude": 0
 },
 {
  "City": "Austin",
  "Country_long": "United States of America",
  "Longitude": -97.70022,
  "Latitude": 30.14568
 },
 {
  "City": "Bellevue",
  "Country_long": "United States of America",
  "Longitude": -122.15341,
  "Latitude": 47.561195
 },
 {
  "City": "Cambridge",
  "Country_long": "United Kingdom of Great Britain and Northern Ireland",
  "Longitude": -2.36667,
  "Latitude": 51.73333
 },
 {
  "City": "Bellevue",
  "Country_long": "United States of America",
  "Longitude": -122.15341,
  "Latitude": 47.561195
 },
 {
  "City": "Ashburn",
  "Country_long": "United States of America",
  "Longitude": -77.48749,
  "Latitude": 39.04372
 },
 {
  "City": "Louisville",
  "Country_long": "United States of America",
  "Longitude": -85.75941,
  "Latitude": 38.25424
 },
 {
  "City": "Bellevue",
  "Country_long": "United States of America",
  "Longitude": -122.15341,
  "Latitude": 47.561195
 },
 {
  "City": "Chicago",
  "Country_long": "United States of America",
  "Longitude": -87.65005,
  "Latitude": 41.85003
 },
 {
  "City": "Bellevue",
  "Country_long": "United States of America",
  "Longitude": -122.15341,
  "Latitude": 47.561195
 },
 {
  "City": "College Station",
  "Country_long": "United States of America",
  "Longitude": -96.34913,
  "Latitude": 30.611055
 },
 {
  "City": "Temple Terrace",
  "Country_long": "United States of America",
  "Longitude": -82.36568,
  "Latitude": 28.03024
 },
 {
  "City": "Petah Tikva",
  "Country_long": "Israel",
  "Longitude": 34.88503,
  "Latitude": 32.09174
 },
 {
  "City": "Bellevue",
  "Country_long": "United States of America",
  "Longitude": -122.15341,
  "Latitude": 47.561195
 },
 {
  "City": "Cherepovets",
  "Country_long": "Russian Federation",
  "Longitude": 37.9,
  "Latitude": 59.13333
 },
 {
  "City": "Nutley",
  "Country_long": "United States of America",
  "Longitude": -74.160484,
  "Latitude": 40.817707
 },
 {
  "City": "Palo Alto",
  "Country_long": "United States of America",
  "Longitude": -122.1604,
  "Latitude": 37.409912
 },
 {
  "City": "Bellevue",
  "Country_long": "United States of America",
  "Longitude": -122.15341,
  "Latitude": 47.561195
 },
 {
  "City": "Rochester",
  "Country_long": "United States of America",
  "Longitude": -77.61963,
  "Latitude": 43.16105
 },
 {
  "City": "Bellevue",
  "Country_long": "United States of America",
  "Longitude": -122.15341,
  "Latitude": 47.561195
 },
 {
  "City": "Atlanta",
  "Country_long": "United States of America",
  "Longitude": -84.38798,
  "Latitude": 33.749
 },
 {
  "City": "Mountain View",
  "Country_long": "United States of America",
  "Longitude": -122.078514,
  "Latitude": 37.40599
 },
 {
  "City": "Edmonton",
  "Country_long": "Canada",
  "Longitude": -113.515785,
  "Latitude": 53.538048
 },
 {
  "City": "Los Angeles",
  "Country_long": "United States of America",
  "Longitude": -118.250916,
  "Latitude": 34.04324
 },
 {
  "City": "Osaka",
  "Country_long": "Japan",
  "Longitude": 135.50221,
  "Latitude": 34.69389
 },
 {
  "City": "Montgomery",
  "Country_long": "United States of America",
  "Longitude": -86.2459,
  "Latitude": 32.4045
 },
 {
  "City": "Los Angeles",
  "Country_long": "United States of America",
  "Longitude": -118.43053,
  "Latitude": 33.99657
 },
 {
  "City": "New York City",
  "Country_long": "United States of America",
  "Longitude": -74.00597,
  "Latitude": 40.71427
 },
 {
  "City": "Bellevue",
  "Country_long": "United States of America",
  "Longitude": -122.15341,
  "Latitude": 47.561195
 },
 {
  "City": "Annapolis",
  "Country_long": "United States of America",
  "Longitude": -76.50714,
  "Latitude": 39.00438
 },
 {
  "City": "Bloomington",
  "Country_long": "United States of America",
  "Longitude": -93.23976,
  "Latitude": 44.84262
 },
 {
  "City": "Bellevue",
  "Country_long": "United States of America",
  "Longitude": -122.15341,
  "Latitude": 47.561195
 },
 {
  "City": "Bellevue",
  "Country_long": "United States of America",
  "Longitude": -122.15341,
  "Latitude": 47.561195
 },
 {
  "City": "Bellevue",
  "Country_long": "United States of America",
  "Longitude": -122.15341,
  "Latitude": 47.561195
 },
 {
  "City": "Redondo Beach",
  "Country_long": "United States of America",
  "Longitude": -118.37336,
  "Latitude": 33.870213
 },
 {
  "City": "Perth",
  "Country_long": "Australia",
  "Longitude": 115.8614,
  "Latitude": -31.95224
 },
 {
  "City": "Vera",
  "Country_long": "Argentina",
  "Longitude": -60.21261,
  "Latitude": -29.4593
 },
 {
  "City": "Bellevue",
  "Country_long": "United States of America",
  "Longitude": -122.15341,
  "Latitude": 47.561195
 },
 {
  "City": "Vaasa",
  "Country_long": "Finland",
  "Longitude": 21.61577,
  "Latitude": 63.096
 },
 {
  "City": "Finland",
  "Country_long": "United States of America",
  "Longitude": -91.24917,
  "Latitude": 47.41472
 },
 {
  "City": "Tampere",
  "Country_long": "Finland",
  "Longitude": 23.78712,
  "Latitude": 61.49911
 },
 {
  "City": "Bellevue",
  "Country_long": "United States of America",
  "Longitude": -122.15341,
  "Latitude": 47.561195
 },
 {
  "City": "Portland",
  "Country_long": "United States of America",
  "Longitude": -122.67621,
  "Latitude": 45.52345
 },
 {
  "City": "Hoffman Estates",
  "Country_long": "United States of America",
  "Longitude": -88.11012,
  "Latitude": 42.07632
 },
 {
  "City": "Bellevue",
  "Country_long": "United States of America",
  "Longitude": -122.15341,
  "Latitude": 47.561195
 },
 {
  "City": "Oak Lawn",
  "Country_long": "United States of America",
  "Longitude": -87.75811,
  "Latitude": 41.71087
 },
 {
  "City": "Duluth",
  "Country_long": "United States of America",
  "Longitude": -92.11416,
  "Latitude": 46.76433
 },
 {
  "City": "Phoenix",
  "Country_long": "United States of America",
  "Longitude": -112.11909,
  "Latitude": 33.597473
 },
 {
  "City": "Seattle",
  "Country_long": "United States of America",
  "Longitude": -122.3462,
  "Latitude": 47.6275
 },
 {
  "City": "Melbourne",
  "Country_long": "United States of America",
  "Longitude": -80.62927,
  "Latitude": 28.07756
 },
 {
  "City": "Tempe",
  "Country_long": "United States of America",
  "Longitude": -111.92409,
  "Latitude": 33.424282
 },
 {
  "City": "Newark",
  "Country_long": "United States of America",
  "Longitude": -91.44152,
  "Latitude": 35.70174
 },
 {
  "City": "Houston",
  "Country_long": "United States of America",
  "Longitude": -95.467926,
  "Latitude": 29.7486
 },
 {
  "City": "Bellevue",
  "Country_long": "United States of America",
  "Longitude": -122.15341,
  "Latitude": 47.561195
 },
 {
  "City": "Centreville",
  "Country_long": "United States of America",
  "Longitude": -77.46226,
  "Latitude": 38.85106
 },
 {
  "City": "West Palm Beach",
  "Country_long": "United States of America",
  "Longitude": -80.06044,
  "Latitude": 26.67153
 },
 {
  "City": "Livermore",
  "Country_long": "United States of America",
  "Longitude": -121.691025,
  "Latitude": 37.729225
 },
 {
  "City": "Bellevue",
  "Country_long": "United States of America",
  "Longitude": -122.15341,
  "Latitude": 47.561195
 },
 {
  "City": "Bellevue",
  "Country_long": "United States of America",
  "Longitude": -122.15341,
  "Latitude": 47.561195
 },
 {
  "City": "Palo Alto",
  "Country_long": "United States of America",
  "Longitude": -122.1604,
  "Latitude": 37.409912
 },
 {
  "City": "Virginia Beach",
  "Country_long": "United States of America",
  "Longitude": -76.00152,
  "Latitude": 36.88164
 },
 {
  "City": "Bellevue",
  "Country_long": "United States of America",
  "Longitude": -122.15341,
  "Latitude": 47.561195
 },
 {
  "City": "Bellevue",
  "Country_long": "United States of America",
  "Longitude": -122.15341,
  "Latitude": 47.561195
 },
 {
  "City": "Lake Mary",
  "Country_long": "United States of America",
  "Longitude": -81.34584,
  "Latitude": 28.75992
 },
 {
  "City": "Chicago",
  "Country_long": "United States of America",
  "Longitude": -87.6245,
  "Latitude": 41.8865
 },
 {
  "City": "Bellevue",
  "Country_long": "United States of America",
  "Longitude": -122.15341,
  "Latitude": 47.561195
 },
 {
  "City": "Vienna",
  "Country_long": "Austria",
  "Longitude": 16.37208,
  "Latitude": 48.20849
 },
 {
  "City": "Bellevue",
  "Country_long": "United States of America",
  "Longitude": -122.15341,
  "Latitude": 47.561195
 },
 {
  "City": "Bellevue",
  "Country_long": "United States of America",
  "Longitude": -122.15341,
  "Latitude": 47.561195
 },
 {
  "City": "Bellevue",
  "Country_long": "United States of America",
  "Longitude": -122.15341,
  "Latitude": 47.561195
 },
 {
  "City": "Atlanta",
  "Country_long": "United States of America",
  "Longitude": -84.38798,
  "Latitude": 33.749
 },
 {
  "City": "Gainesville",
  "Country_long": "United States of America",
  "Longitude": -83.82407,
  "Latitude": 34.29788
 },
 {
  "City": "Bellevue",
  "Country_long": "United States of America",
  "Longitude": -122.15341,
  "Latitude": 47.561195
 },
 {
  "City": "Ashburn",
  "Country_long": "United States of America",
  "Longitude": -77.4885,
  "Latitude": 39.03408
 },
 {
  "City": "Fayetteville",
  "Country_long": "United States of America",
  "Longitude": -94.15743,
  "Latitude": 36.06258
 },
 {
  "City": "Fremont",
  "Country_long": "United States of America",
  "Longitude": -121.92949,
  "Latitude": 37.51798
 },
 {
  "City": "Hoffman Estates",
  "Country_long": "United States of America",
  "Longitude": -88.11012,
  "Latitude": 42.07632
 },
 {
  "City": "Bellevue",
  "Country_long": "United States of America",
  "Longitude": -122.15341,
  "Latitude": 47.561195
 },
 {
  "City": "Seattle",
  "Country_long": "United States of America",
  "Longitude": -122.33207,
  "Latitude": 47.60621
 },
 {
  "City": "West Chester",
  "Country_long": "United States of America",
  "Longitude": -75.60549,
  "Latitude": 39.96066
 },
 {
  "City": "Bellevue",
  "Country_long": "United States of America",
  "Longitude": -122.15341,
  "Latitude": 47.561195
 },
 {
  "City": "Kirkland",
  "Country_long": "United States of America",
  "Longitude": -122.18957,
  "Latitude": 47.68687
 },
 {
  "City": "El Segundo",
  "Country_long": "United States of America",
  "Longitude": -118.40552,
  "Latitude": 33.922234
 },
 {
  "City": "North Waltham",
  "Country_long": "United States of America",
  "Longitude": -71.0605,
  "Latitude": 42.3586
 },
 {
  "City": "Bellevue",
  "Country_long": "United States of America",
  "Longitude": -122.15341,
  "Latitude": 47.561195
 },
 {
  "City": "Eustace",
  "Country_long": "United States of America",
  "Longitude": -96.00917,
  "Latitude": 32.30889
 },
 {
  "City": "Atlanta",
  "Country_long": "United States of America",
  "Longitude": -84.361015,
  "Latitude": 33.8185
 },
 {
  "City": "Hoffman Estates",
  "Country_long": "United States of America",
  "Longitude": -88.11012,
  "Latitude": 42.07632
 },
 {
  "City": "Montreal",
  "Country_long": "Canada",
  "Longitude": -73.61236,
  "Latitude": 45.52726
 },
 {
  "City": "Mountain View",
  "Country_long": "United States of America",
  "Longitude": -122.078514,
  "Latitude": 37.40599
 },
 {
  "City": "Philadelphia",
  "Country_long": "United States of America",
  "Longitude": -75.16379,
  "Latitude": 39.95234
 },
 {
  "City": "Austin",
  "Country_long": "United States of America",
  "Longitude": -97.74306,
  "Latitude": 30.26715
 },
 {
  "City": "West Greenwich",
  "Country_long": "United States of America",
  "Longitude": -71.6269,
  "Latitude": 41.6261
 },
 {
  "City": "Palo Alto",
  "Country_long": "United States of America",
  "Longitude": -122.1604,
  "Latitude": 37.409912
 },
 {
  "City": "Bellevue",
  "Country_long": "United States of America",
  "Longitude": -122.15341,
  "Latitude": 47.561195
 },
 {
  "City": "San Jose",
  "Country_long": "United States of America",
  "Longitude": -121.945175,
  "Latitude": 37.412086
 },
 {
  "City": "Bellevue",
  "Country_long": "United States of America",
  "Longitude": -122.15341,
  "Latitude": 47.561195
 },
 {
  "City": "Bellevue",
  "Country_long": "United States of America",
  "Longitude": -122.15341,
  "Latitude": 47.561195
 },
 {
  "City": "Eindhoven",
  "Country_long": "Netherlands",
  "Longitude": 5.47778,
  "Latitude": 51.44083
 },
 {
  "City": "Bellevue",
  "Country_long": "United States of America",
  "Longitude": -122.15341,
  "Latitude": 47.561195
 },
 {
  "City": "Bellevue",
  "Country_long": "United States of America",
  "Longitude": -122.15341,
  "Latitude": 47.561195
 },
 {
  "City": "Bellevue",
  "Country_long": "United States of America",
  "Longitude": -122.15341,
  "Latitude": 47.561195
 },
 {
  "City": "Bellevue",
  "Country_long": "United States of America",
  "Longitude": -122.15341,
  "Latitude": 47.561195
 },
 {
  "City": "Chicago",
  "Country_long": "United States of America",
  "Longitude": -87.6367,
  "Latitude": 41.8825
 },
 {
  "City": "Tsukuba",
  "Country_long": "Japan",
  "Longitude": 140.067,
  "Latitude": 36.033
 },
 {
  "City": "Piscataway",
  "Country_long": "United States of America",
  "Longitude": -74.46017,
  "Latitude": 40.554516
 },
 {
  "City": "Birmingham",
  "Country_long": "United States of America",
  "Longitude": -86.80249,
  "Latitude": 33.52066
 },
 {
  "City": "Bellevue",
  "Country_long": "United States of America",
  "Longitude": -122.15341,
  "Latitude": 47.561195
 },
 {
  "City": "Bellevue",
  "Country_long": "United States of America",
  "Longitude": -122.15341,
  "Latitude": 47.561195
 },
 {
  "City": "Copenhagen",
  "Country_long": "Denmark",
  "Longitude": 12.56553,
  "Latitude": 55.67594
 },
 {
  "City": "Bellevue",
  "Country_long": "United States of America",
  "Longitude": -122.15341,
  "Latitude": 47.561195
 },
 {
  "City": "Montgomery",
  "Country_long": "United States of America",
  "Longitude": -86.2459,
  "Latitude": 32.4045
 },
 {
  "City": "Seattle",
  "Country_long": "United States of America",
  "Longitude": -122.33207,
  "Latitude": 47.60621
 },
 {
  "City": "Newark",
  "Country_long": "United States of America",
  "Longitude": -74.17237,
  "Latitude": 40.73566
 },
 {
  "City": "Cagliari",
  "Country_long": "Italy",
  "Longitude": 9.13462,
  "Latitude": 39.20738
 },
 {
  "City": "Rancho Cordova",
  "Country_long": "United States of America",
  "Longitude": -121.30273,
  "Latitude": 38.58907
 },
 {
  "City": "Bellevue",
  "Country_long": "United States of America",
  "Longitude": -122.15341,
  "Latitude": 47.561195
 },
 {
  "City": "Bedminster",
  "Country_long": "United States of America",
  "Longitude": -74.65556,
  "Latitude": 40.6675
 },
 {
  "City": "New York City",
  "Country_long": "United States of America",
  "Longitude": -73.97422,
  "Latitude": 40.752193
 },
 {
  "City": "Langley",
  "Country_long": "Canada",
  "Longitude": -122.60895,
  "Latitude": 49.13952
 },
 {
  "City": "Johannesburg",
  "Country_long": "South Africa",
  "Longitude": 28.04363,
  "Latitude": -26.20227
 },
 {
  "City": "Kent",
  "Country_long": "United States of America",
  "Longitude": -122.2626,
  "Latitude": 47.3907
 },
 {
  "City": "Kuala Lumpur",
  "Country_long": "Malaysia",
  "Longitude": 101.68653,
  "Latitude": 3.1412
 },
 {
  "City": "Denver",
  "Country_long": "United States of America",
  "Longitude": -105.00954,
  "Latitude": 39.83442
 },
 {
  "City": "Irvine",
  "Country_long": "United States of America",
  "Longitude": -117.82311,
  "Latitude": 33.66946
 },
 {
  "City": "Farmington",
  "Country_long": "United States of America",
  "Longitude": -72.83738,
  "Latitude": 41.72772
 },
 {
  "City": "Truckee",
  "Country_long": "United States of America",
  "Longitude": -120.18222,
  "Latitude": 39.32802
 },
 {
  "City": "Ashburn",
  "Country_long": "United States of America",
  "Longitude": -77.48749,
  "Latitude": 39.04372
 },
 {
  "City": "Palo Alto",
  "Country_long": "United States of America",
  "Longitude": -122.1604,
  "Latitude": 37.409912
 },
 {
  "City": "Bellevue",
  "Country_long": "United States of America",
  "Longitude": -122.15341,
  "Latitude": 47.561195
 },
 {
  "City": "Palo Alto",
  "Country_long": "United States of America",
  "Longitude": -122.1604,
  "Latitude": 37.409912
 },
 {
  "City": "Indianapolis",
  "Country_long": "United States of America",
  "Longitude": -86.15652,
  "Latitude": 39.772247
 },
 {
  "City": "San Antonio",
  "Country_long": "United States of America",
  "Longitude": -98.49363,
  "Latitude": 29.42412
 },
 {
  "City": "Columbus",
  "Country_long": "United States of America",
  "Longitude": -83.01277,
  "Latitude": 39.96638
 },
 {
  "City": "Koge",
  "Country_long": "Denmark",
  "Longitude": 12.18214,
  "Latitude": 55.45802
 },
 {
  "City": "Calgary",
  "Country_long": "Canada",
  "Longitude": -114.0398,
  "Latitude": 51.02161
 },
 {
  "City": "Greenwood Village",
  "Country_long": "United States of America",
  "Longitude": -104.88393,
  "Latitude": 39.613087
 },
 {
  "City": "Bellevue",
  "Country_long": "United States of America",
  "Longitude": -122.15341,
  "Latitude": 47.561195
 },
 {
  "City": "Portland",
  "Country_long": "United States of America",
  "Longitude": -122.67621,
  "Latitude": 45.52345
 },
 {
  "City": "Bellevue",
  "Country_long": "United States of America",
  "Longitude": -122.15341,
  "Latitude": 47.561195
 },
 {
  "City": "Riviere-du-Loup",
  "Country_long": "Canada",
  "Longitude": -69.53695,
  "Latitude": 47.835423
 },
 {
  "City": "Los Angeles",
  "Country_long": "United States of America",
  "Longitude": -118.24368,
  "Latitude": 34.05223
 },
 {
  "City": "Windsor",
  "Country_long": "Canada",
  "Longitude": -83.01654,
  "Latitude": 42.30008
 },
 {
  "City": "Rochester",
  "Country_long": "United States of America",
  "Longitude": -77.56136,
  "Latitude": 43.175575
 },
 {
  "City": "Quincy",
  "Country_long": "United States of America",
  "Longitude": -71.024956,
  "Latitude": 42.28362
 },
 {
  "City": "Atlanta",
  "Country_long": "United States of America",
  "Longitude": -84.38798,
  "Latitude": 33.749
 },
 {
  "City": "Buffalo",
  "Country_long": "United States of America",
  "Longitude": -78.8788,
  "Latitude": 42.8825
 },
 {
  "City": "Stone Mountain",
  "Country_long": "United States of America",
  "Longitude": -84.1702,
  "Latitude": 33.80816
 },
 {
  "City": "San Jose",
  "Country_long": "United States of America",
  "Longitude": -121.88528,
  "Latitude": 37.38564
 },
 {
  "City": "Dhahran",
  "Country_long": "Saudi Arabia",
  "Longitude": 50.13528,
  "Latitude": 26.30324
 },
 {
  "City": "West Palm Beach",
  "Country_long": "United States of America",
  "Longitude": -80.06044,
  "Latitude": 26.67153
 },
 {
  "City": "Miami",
  "Country_long": "United States of America",
  "Longitude": -80.19366,
  "Latitude": 25.77427
 },
 {
  "City": "Argonne",
  "Country_long": "United States of America",
  "Longitude": -88.858696,
  "Latitude": 45.723927
 },
 {
  "City": "Bellevue",
  "Country_long": "United States of America",
  "Longitude": -122.15341,
  "Latitude": 47.561195
 },
 {
  "City": "Greenwood Village",
  "Country_long": "United States of America",
  "Longitude": -104.88393,
  "Latitude": 39.613087
 },
 {
  "City": "Columbus",
  "Country_long": "United States of America",
  "Longitude": -83.01277,
  "Latitude": 39.96638
 },
 {
  "City": "Vancouver",
  "Country_long": "Canada",
  "Longitude": -123.12528,
  "Latitude": 49.278923
 },
 {
  "City": "Bellevue",
  "Country_long": "United States of America",
  "Longitude": -122.15341,
  "Latitude": 47.561195
 },
 {
  "City": "Tampere",
  "Country_long": "Finland",
  "Longitude": 23.78712,
  "Latitude": 61.49911
 },
 {
  "City": "Bellevue",
  "Country_long": "United States of America",
  "Longitude": -122.15341,
  "Latitude": 47.561195
 },
 {
  "City": "Richardson",
  "Country_long": "United States of America",
  "Longitude": -96.74487,
  "Latitude": 32.96277
 },
 {
  "City": "Bellevue",
  "Country_long": "United States of America",
  "Longitude": -122.15341,
  "Latitude": 47.561195
 },
 {
  "City": "Bellevue",
  "Country_long": "United States of America",
  "Longitude": -122.15341,
  "Latitude": 47.561195
 },
 {
  "City": "Urbana",
  "Country_long": "United States of America",
  "Longitude": -88.19706,
  "Latitude": 40.111023
 },
 {
  "City": "Bellevue",
  "Country_long": "United States of America",
  "Longitude": -122.15341,
  "Latitude": 47.561195
 },
 {
  "City": "Bellevue",
  "Country_long": "United States of America",
  "Longitude": -122.15341,
  "Latitude": 47.561195
 },
 {
  "City": "Bellevue",
  "Country_long": "United States of America",
  "Longitude": -122.15341,
  "Latitude": 47.561195
 },
 {
  "City": "Bellevue",
  "Country_long": "United States of America",
  "Longitude": -122.15341,
  "Latitude": 47.561195
 },
 {
  "City": "Columbus",
  "Country_long": "United States of America",
  "Longitude": -83.01277,
  "Latitude": 39.96638
 },
 {
  "City": "Bellevue",
  "Country_long": "United States of America",
  "Longitude": -122.15341,
  "Latitude": 47.561195
 },
 {
  "City": "Lexington",
  "Country_long": "United States of America",
  "Longitude": -84.47772,
  "Latitude": 37.98869
 },
 {
  "City": "Greenwood Village",
  "Country_long": "United States of America",
  "Longitude": -104.88393,
  "Latitude": 39.613087
 },
 {
  "City": "Tokyo",
  "Country_long": "Japan",
  "Longitude": 139.6917,
  "Latitude": 35.689507
 },
 {
  "City": "Mountain View",
  "Country_long": "United States of America",
  "Longitude": -122.078514,
  "Latitude": 37.40599
 },
 {
  "City": "Clifton",
  "Country_long": "United States of America",
  "Longitude": -74.13802,
  "Latitude": 40.833374
 },
 {
  "City": "Bellevue",
  "Country_long": "United States of America",
  "Longitude": -122.15341,
  "Latitude": 47.561195
 },
 {
  "City": "Bellevue",
  "Country_long": "United States of America",
  "Longitude": -122.15341,
  "Latitude": 47.561195
 },
 {
  "City": "Tampere",
  "Country_long": "Finland",
  "Longitude": 23.78712,
  "Latitude": 61.49911
 },
 {
  "City": "Millbrook",
  "Country_long": "Canada",
  "Longitude": -78.40585,
  "Latitude": 44.160583
 },
 {
  "City": "Fairfax",
  "Country_long": "United States of America",
  "Longitude": -77.30637,
  "Latitude": 38.84622
 },
 {
  "City": "Ann Arbor",
  "Country_long": "United States of America",
  "Longitude": -83.7207,
  "Latitude": 42.238068
 },
 {
  "City": "Plymouth",
  "Country_long": "United States of America",
  "Longitude": -83.5195,
  "Latitude": 42.3708
 },
 {
  "City": "Bellevue",
  "Country_long": "United States of America",
  "Longitude": -122.15341,
  "Latitude": 47.561195
 },
 {
  "City": "Columbus",
  "Country_long": "United States of America",
  "Longitude": -83.01277,
  "Latitude": 39.96638
 },
 {
  "City": "Bellevue",
  "Country_long": "United States of America",
  "Longitude": -122.15341,
  "Latitude": 47.561195
 },
 {
  "City": "Bellevue",
  "Country_long": "United States of America",
  "Longitude": -122.15341,
  "Latitude": 47.561195
 },
 {
  "City": "Rosemead",
  "Country_long": "United States of America",
  "Longitude": -118.08162,
  "Latitude": 34.0614
 },
 {
  "City": "Bellevue",
  "Country_long": "United States of America",
  "Longitude": -122.15341,
  "Latitude": 47.561195
 },
 {
  "City": "New York City",
  "Country_long": "United States of America",
  "Longitude": -74.00597,
  "Latitude": 40.71427
 },
 {
  "City": "Krasnoyarsk",
  "Country_long": "Russian Federation",
  "Longitude": 92.79167,
  "Latitude": 56.00972
 },
 {
  "City": "Lake Mary",
  "Country_long": "United States of America",
  "Longitude": -81.34584,
  "Latitude": 28.75992
 },
 {
  "City": "Palo Alto",
  "Country_long": "United States of America",
  "Longitude": -122.1604,
  "Latitude": 37.409912
 },
 {
  "City": "Lake Mary",
  "Country_long": "United States of America",
  "Longitude": -81.34584,
  "Latitude": 28.75992
 },
 {
  "City": "Newark",
  "Country_long": "United States of America",
  "Longitude": -74.17237,
  "Latitude": 40.73566
 },
 {
  "City": "San Jose",
  "Country_long": "United States of America",
  "Longitude": -121.8893,
  "Latitude": 37.3337
 },
 {
  "City": "Nanterre",
  "Country_long": "France",
  "Longitude": 2.20675,
  "Latitude": 48.89198
 },
 {
  "City": "Dearborn",
  "Country_long": "United States of America",
  "Longitude": -83.19132,
  "Latitude": 42.31152
 },
 {
  "City": "New York City",
  "Country_long": "United States of America",
  "Longitude": -74.00597,
  "Latitude": 40.71427
 },
 {
  "City": "Bellevue",
  "Country_long": "United States of America",
  "Longitude": -122.15341,
  "Latitude": 47.561195
 },
 {
  "City": "Ashburn",
  "Country_long": "United States of America",
  "Longitude": -77.48749,
  "Latitude": 39.04372
 },
 {
  "City": "Bellevue",
  "Country_long": "United States of America",
  "Longitude": -122.15341,
  "Latitude": 47.561195
 },
 {
  "City": "Bozeman",
  "Country_long": "United States of America",
  "Longitude": -111.03856,
  "Latitude": 45.67965
 },
 {
  "City": "Boston",
  "Country_long": "United States of America",
  "Longitude": -71.05977,
  "Latitude": 42.35843
 },
 {
  "City": "Riverside",
  "Country_long": "United States of America",
  "Longitude": -117.39616,
  "Latitude": 33.95335
 },
 {
  "City": "Graz",
  "Country_long": "Austria",
  "Longitude": 15.45,
  "Latitude": 47.06667
 },
 {
  "City": "Brighton",
  "Country_long": "Canada",
  "Longitude": -77.73279,
  "Latitude": 44.03342
 },
 {
  "City": "Bellevue",
  "Country_long": "United States of America",
  "Longitude": -122.15341,
  "Latitude": 47.561195
 },
 {
  "City": "Oak Lawn",
  "Country_long": "United States of America",
  "Longitude": -87.75811,
  "Latitude": 41.71087
 },
 {
  "City": "Vienna",
  "Country_long": "Austria",
  "Longitude": 16.37208,
  "Latitude": 48.20849
 },
 {
  "City": "Greenwood Village",
  "Country_long": "United States of America",
  "Longitude": -104.88393,
  "Latitude": 39.613087
 },
 {
  "City": "Edmonton",
  "Country_long": "Canada",
  "Longitude": -113.68917,
  "Latitude": 53.565834
 },
 {
  "City": "Bellevue",
  "Country_long": "United States of America",
  "Longitude": -122.15341,
  "Latitude": 47.561195
 },
 {
  "City": "Bellevue",
  "Country_long": "United States of America",
  "Longitude": -122.15341,
  "Latitude": 47.561195
 },
 {
  "City": "Bellevue",
  "Country_long": "United States of America",
  "Longitude": -122.15341,
  "Latitude": 47.561195
 },
 {
  "City": "Bellevue",
  "Country_long": "United States of America",
  "Longitude": -122.15341,
  "Latitude": 47.561195
 },
 {
  "City": "Platz",
  "Country_long": "Germany",
  "Longitude": 11.88669,
  "Latitude": 52.73847
 },
 {
  "City": "Fremont",
  "Country_long": "United States of America",
  "Longitude": -83.11871,
  "Latitude": 41.346046
 },
 {
  "City": "Bellevue",
  "Country_long": "United States of America",
  "Longitude": -122.15341,
  "Latitude": 47.561195
 },
 {
  "City": "Vancouver",
  "Country_long": "Canada",
  "Longitude": -123.145905,
  "Latitude": 49.20575
 },
 {
  "City": "Bellevue",
  "Country_long": "United States of America",
  "Longitude": -122.15341,
  "Latitude": 47.561195
 },
 {
  "City": "Hull",
  "Country_long": "Canada",
  "Longitude": -75.71056,
  "Latitude": 45.42761
 },
 {
  "City": "Bellevue",
  "Country_long": "United States of America",
  "Longitude": -122.15341,
  "Latitude": 47.561195
 },
 {
  "City": "Paris",
  "Country_long": "France",
  "Longitude": 2.3488,
  "Latitude": 48.85341
 },
 {
  "City": "Helsinki",
  "Country_long": "Finland",
  "Longitude": 24.93545,
  "Latitude": 60.16952
 },
 {
  "City": "Bellevue",
  "Country_long": "United States of America",
  "Longitude": -122.15341,
  "Latitude": 47.561195
 },
 {
  "City": "Bellevue",
  "Country_long": "United States of America",
  "Longitude": -122.15341,
  "Latitude": 47.561195
 },
 {
  "City": "Bellevue",
  "Country_long": "United States of America",
  "Longitude": -122.15341,
  "Latitude": 47.561195
 },
 {
  "City": "Canberra",
  "Country_long": "Australia",
  "Longitude": 149.12807,
  "Latitude": -35.28346
 },
 {
  "City": "Cambridge",
  "Country_long": "United States of America",
  "Longitude": -71.13045,
  "Latitude": 42.378296
 },
 {
  "City": "Toronto",
  "Country_long": "Canada",
  "Longitude": -79.4163,
  "Latitude": 43.70011
 },
 {
  "City": "Bellevue",
  "Country_long": "United States of America",
  "Longitude": -122.15341,
  "Latitude": 47.561195
 },
 {
  "City": "Bellevue",
  "Country_long": "United States of America",
  "Longitude": -122.15341,
  "Latitude": 47.561195
 },
 {
  "City": "Honolulu",
  "Country_long": "United States of America",
  "Longitude": -157.8806,
  "Latitude": 21.347012
 },
 {
  "City": "Houston",
  "Country_long": "United States of America",
  "Longitude": -95.36327,
  "Latitude": 29.76328
 },
 {
  "City": "San Jose",
  "Country_long": "United States of America",
  "Longitude": -121.786545,
  "Latitude": 37.229656
 },
 {
  "City": "Louisville",
  "Country_long": "United States of America",
  "Longitude": -85.75941,
  "Latitude": 38.25424
 },
 {
  "City": "Bellevue",
  "Country_long": "United States of America",
  "Longitude": -122.15341,
  "Latitude": 47.561195
 },
 {
  "City": "Atlanta",
  "Country_long": "United States of America",
  "Longitude": -84.38798,
  "Latitude": 33.749
 },
 {
  "City": "Petah Tikva",
  "Country_long": "Israel",
  "Longitude": 34.88503,
  "Latitude": 32.09174
 },
 {
  "City": "Bellevue",
  "Country_long": "United States of America",
  "Longitude": -122.15341,
  "Latitude": 47.561195
 },
 {
  "City": "Bellevue",
  "Country_long": "United States of America",
  "Longitude": -122.15341,
  "Latitude": 47.561195
 },
 {
  "City": "Bellevue",
  "Country_long": "United States of America",
  "Longitude": -122.15341,
  "Latitude": 47.561195
 },
 {
  "City": "Cambridge",
  "Country_long": "United Kingdom of Great Britain and Northern Ireland",
  "Longitude": -2.36667,
  "Latitude": 51.73333
 },
 {
  "City": "Bellevue",
  "Country_long": "United States of America",
  "Longitude": -122.15341,
  "Latitude": 47.561195
 },
 {
  "City": "New York City",
  "Country_long": "United States of America",
  "Longitude": -73.99701,
  "Latitude": 40.750134
 },
 {
  "City": "Khalkhal",
  "Country_long": "Iran (Islamic Republic of)",
  "Longitude": 48.5258,
  "Latitude": 37.6189
 },
 {
  "City": "Bellevue",
  "Country_long": "United States of America",
  "Longitude": -122.15341,
  "Latitude": 47.561195
 },
 {
  "City": "Bellevue",
  "Country_long": "United States of America",
  "Longitude": -122.15341,
  "Latitude": 47.561195
 },
 {
  "City": "Baltimore",
  "Country_long": "United States of America",
  "Longitude": -76.61219,
  "Latitude": 39.29038
 },
 {
  "City": "Bellevue",
  "Country_long": "United States of America",
  "Longitude": -122.15341,
  "Latitude": 47.561195
 },
 {
  "City": "Bellevue",
  "Country_long": "United States of America",
  "Longitude": -122.15341,
  "Latitude": 47.561195
 },
 {
  "City": "Ottawa",
  "Country_long": "Canada",
  "Longitude": -75.69812,
  "Latitude": 45.41117
 },
 {
  "City": "Philadelphia",
  "Country_long": "United States of America",
  "Longitude": -75.19993,
  "Latitude": 39.96244
 },
 {
  "City": "Portland",
  "Country_long": "United States of America",
  "Longitude": -122.67621,
  "Latitude": 45.52345
 },
 {
  "City": "Oklahoma City",
  "Country_long": "United States of America",
  "Longitude": -97.63302,
  "Latitude": 35.482952
 },
 {
  "City": "Bellevue",
  "Country_long": "United States of America",
  "Longitude": -122.15341,
  "Latitude": 47.561195
 },
 {
  "City": "Philadelphia",
  "Country_long": "United States of America",
  "Longitude": -75.1457,
  "Latitude": 39.97681
 },
 {
  "City": "Los Angeles",
  "Country_long": "United States of America",
  "Longitude": -118.24368,
  "Latitude": 34.05223
 },
 {
  "City": "Bellevue",
  "Country_long": "United States of America",
  "Longitude": -122.15341,
  "Latitude": 47.561195
 },
 {
  "City": "Bellevue",
  "Country_long": "United States of America",
  "Longitude": -122.15341,
  "Latitude": 47.561195
 },
 {
  "City": "Houston",
  "Country_long": "United States of America",
  "Longitude": -95.467926,
  "Latitude": 29.7486
 },
 {
  "City": "Columbus",
  "Country_long": "United States of America",
  "Longitude": -83.01277,
  "Latitude": 39.96638
 },
 {
  "City": "Dallas",
  "Country_long": "United States of America",
  "Longitude": -96.80667,
  "Latitude": 32.78306
 },
 {
  "City": "Quantico",
  "Country_long": "United States of America",
  "Longitude": -77.3214,
  "Latitude": 38.5201
 },
 {
  "City": "Urbana",
  "Country_long": "United States of America",
  "Longitude": -88.19706,
  "Latitude": 40.111023
 },
 {
  "City": "Chandler",
  "Country_long": "United States of America",
  "Longitude": -111.8332,
  "Latitude": 33.3181
 },
 {
  "City": "Las Vegas",
  "Country_long": "United States of America",
  "Longitude": -115.2253,
  "Latitude": 36.20689
 },
 {
  "City": "Monroe",
  "Country_long": "United States of America",
  "Longitude": -92.045235,
  "Latitude": 32.54833
 },
 {
  "City": "Bellevue",
  "Country_long": "United States of America",
  "Longitude": -122.15341,
  "Latitude": 47.561195
 },
 {
  "City": "Bellevue",
  "Country_long": "United States of America",
  "Longitude": -122.15341,
  "Latitude": 47.561195
 },
 {
  "City": "Rosemead",
  "Country_long": "United States of America",
  "Longitude": -118.08162,
  "Latitude": 34.0614
 },
 {
  "City": "Bellevue",
  "Country_long": "United States of America",
  "Longitude": -122.15341,
  "Latitude": 47.561195
 },
 {
  "City": "Columbus",
  "Country_long": "United States of America",
  "Longitude": -83.01277,
  "Latitude": 39.96638
 },
 {
  "City": "Bellevue",
  "Country_long": "United States of America",
  "Longitude": -122.15341,
  "Latitude": 47.561195
 },
 {
  "City": "Bellevue",
  "Country_long": "United States of America",
  "Longitude": -122.15341,
  "Latitude": 47.561195
 },
 {
  "City": "Frankfurt am Main",
  "Country_long": "Germany",
  "Longitude": 8.68417,
  "Latitude": 50.11552
 },
 {
  "City": "Redwood City",
  "Country_long": "United States of America",
  "Longitude": -122.2042,
  "Latitude": 37.4915
 },
 {
  "City": "Bellevue",
  "Country_long": "United States of America",
  "Longitude": -122.15341,
  "Latitude": 47.561195
 },
 {
  "City": "Bern",
  "Country_long": "Switzerland",
  "Longitude": 7.44744,
  "Latitude": 46.94809
 },